ID,City,State,Start_Time,Severity,Start_Lat,Start_Lng,Weather_Condition,Temperature(F),Precipitation(in),Visibility(mi),Humidity(%),Distance(mi)
A-1799782,Nashville,TN,2019-11-05 18:39:09,3,36.08589600000001,-86.699974,Fair,52.0,0.0,10.0,66.0,0.0
A-1678728,Charlotte,NC,2019-12-25 20:54:34,2,35.236759,-80.775627,Mostly Cloudy,48.0,0.0,10.0,66.0,0.0
A-7389252,Duarte,CA,2019-09-17 07:53:00,2,34.1398,-117.955548,Fair,68.0,0.0,9.0,73.0,0.0
A-1766260,Merrick,NY,2019-10-21 07:01:05,2,40.658241,-73.568146,Fair,53.0,0.0,10.0,80.0,0.0
A-1854771,Dallas,TX,2019-09-30 04:02:13,3,32.642078000000005,-96.823334,Fair,76.0,0.0,10.0,79.0,1.5299999713897705
A-1927737,Timmonsville,SC,2019-08-22 12:16:27,2,34.062569,-79.858879,Fair,89.0,0.0,10.0,57.0,0.0
A-7454264,Johnstown,CO,2019-02-26 08:18:49,3,40.35979,-104.98377,Overcast,19.4,,6.0,93.0,0.119
A-2243020,Modesto,CA,2019-03-27 12:26:23,2,37.626090999999995,-120.993233,Overcast,66.0,,10.0,48.0,0.0
A-2319922,Thousand Oaks,CA,2019-01-05 18:41:46,2,34.177437,-118.876221,Heavy Rain,53.6,0.4,1.5,82.0,0.0
A-2081496,Grayslake,IL,2019-05-31 06:55:24,2,42.317059,-88.120712,Fair,61.0,0.0,10.0,87.0,0.0
A-2104381,Tracy,CA,2019-05-15 13:22:38,3,37.752975,-121.351814,Light Rain,63.0,0.06,10.0,84.0,0.0
A-2343857,Phoenix,AZ,2019-01-17 08:57:48,2,33.465931,-112.112846,Scattered Clouds,53.1,,10.0,83.0,0.0
A-7419541,Escondido,CA,2019-09-14 14:01:30,2,33.126639000000004,-117.10841,Fair,81.0,0.0,10.0,58.0,0.011
A-1985890,Dateland,AZ,2019-07-24 06:26:34,3,32.83556,-113.35733,,,,,,0.0
A-1920062,Wilmington,DE,2019-08-19 17:43:35,2,39.745022,-75.564499,Partly Cloudy,87.0,0.0,10.0,72.0,0.0
A-2007445,Sheboygan,WI,2019-08-06 13:12:24,2,43.768429,-87.724518,Partly Cloudy,78.0,0.0,10.0,60.0,0.0
A-2115388,Melissa,TX,2019-05-21 07:59:01,2,33.294926000000004,-96.591217,Light Rain,65.0,0.25,4.0,93.0,0.0
A-2152929,Conway,SC,2019-04-07 15:35:12,2,33.896744,-79.129082,Fair,72.0,0.0,7.0,60.0,0.0
A-2343317,Oklahoma City,OK,2019-01-17 18:43:50,2,35.565681,-97.567169,Clear,37.9,,10.0,86.0,0.0
A-7462114,Agoura Hills,CA,2019-01-12 13:40:48,4,34.13925,-118.71423,Mostly Cloudy,60.1,,10.0,64.0,1.226
A-7774346,Hialeah,FL,2019-08-16 15:33:40,4,25.90097,-80.32434,Thunder,91.0,0.0,10.0,53.0,0.313
A-2359221,Philadelphia,PA,2019-01-25 08:13:40,3,40.005371,-75.197762,Partly Cloudy,33.1,,10.0,66.0,0.0
A-2246958,Tulsa,OK,2019-03-29 09:58:53,2,36.11364,-95.896324,Light Rain,59.0,0.31,5.0,90.0,0.0
A-7391218,Westminster,CA,2019-09-19 17:30:00,2,33.74457,-118.004501,Fair,74.0,0.0,7.0,54.0,0.0
A-2335647,Dallas,TX,2019-01-14 18:23:14,3,32.661488,-96.724854,Clear,42.1,,9.0,65.0,0.0
A-2079365,Cottage Grove,OR,2019-06-29 13:25:36,3,43.711418,-123.21843,Partly Cloudy,77.0,0.0,10.0,36.0,1.0
A-2042836,Bowman,SC,2019-06-10 09:16:53,3,33.318806,-80.547951,Fair,74.0,0.0,10.0,87.0,0.0
A-2211957,Grand Rapids,MI,2019-03-11 17:37:38,2,42.942318,-85.677361,Partly Cloudy,33.1,,10.0,52.0,0.0
A-7434005,Canton,NY,2019-03-28 15:34:42,4,44.588212,-75.129717,Overcast,48.2,,10.0,54.0,0.596
A-1854381,Oak Creek,WI,2019-09-30 06:42:24,2,42.90005900000001,-87.93566899999998,Light Drizzle,64.0,0.0,0.25,96.0,2.220000028610229
A-2173996,West Covina,CA,2019-04-17 10:56:19,2,34.069115000000004,-117.87216200000002,Fair,66.0,,10.0,60.0,0.0
A-1722619,Salt Lake City,UT,2019-12-17 14:38:51,2,40.782127,-111.911057,Fair,33.0,0.0,10.0,43.0,0.0
A-2322957,Palo Alto,CA,2019-01-07 03:52:02,2,37.449729999999995,-122.123039,Scattered Clouds,50.0,,10.0,94.0,0.5799999833106995
A-7399203,Los Angeles,CA,2019-09-26 06:20:00,2,34.027513,-118.274647,Cloudy,73.0,0.0,10.0,68.0,0.004
A-2092159,Salisbury,NC,2019-05-09 17:09:37,3,35.69555300000001,-80.401093,Cloudy,74.0,0.0,10.0,59.0,0.0
A-2214380,Lehigh Acres,FL,2019-03-12 08:41:11,2,26.617234999999997,-81.675713,Clear,70.0,,10.0,87.0,0.0
A-2156393,Charlotte,NC,2019-04-09 10:38:03,2,35.1978,-80.882729,Cloudy,68.0,0.0,6.0,90.0,0.0
A-1787751,Greenwell Springs,LA,2019-10-30 13:37:04,2,30.60326,-90.996048,Mostly Cloudy,82.0,0.0,10.0,76.0,0.0
A-2342116,Glenside,PA,2019-01-17 07:46:13,2,40.116329,-75.145042,Clear,24.8,,10.0,59.0,0.0
A-1688988,Glendale Heights,IL,2019-12-02 10:18:24,2,41.93758,-88.084908,Partly Cloudy,32.0,0.0,10.0,73.0,0.0
A-7315926,San Diego,CA,2019-12-15 10:02:00,2,32.797194,-117.149355,Mostly Cloudy,60.0,0.0,10.0,57.0,0.0
A-7426294,Newburyport,MA,2019-03-12 17:04:01,2,42.815905,-70.915095,Clear,41.0,,10.0,36.0,0.064
A-1691190,Wesley Chapel,FL,2019-12-03 18:26:49,3,28.186234999999996,-82.38707,Fair,46.0,0.0,10.0,100.0,0.0
A-7435241,Denver,CO,2019-03-30 09:45:46,4,39.689836,-105.117124,Overcast,30.0,,10.0,79.0,0.52
A-1995127,Saint Paul,MN,2019-07-30 09:02:01,3,44.951534,-93.126465,Fair,64.0,0.0,10.0,63.0,1.4500000476837158
A-1906705,Houston,TX,2019-09-11 19:47:01,3,29.776779,-95.387337,Partly Cloudy,83.0,0.0,10.0,74.0,0.0
A-1879143,Greenville,SC,2019-09-25 16:29:37,2,34.846989,-82.457031,Fair,89.0,0.0,10.0,28.0,0.0
A-2169854,Carmel,NY,2019-04-16 11:55:34,2,41.448260999999995,-73.661041,Fair,54.0,0.0,10.0,29.0,0.0
A-2012684,Florence,SC,2019-08-09 05:47:03,2,34.14185,-79.733719,Fair,77.0,0.0,10.0,84.0,0.0
A-7331974,Santa Ana,CA,2019-10-07 17:09:00,2,33.755193,-117.851945,Fair,80.0,0.0,10.0,47.0,0.0
A-1772983,Saint Paul,MN,2019-10-23 08:20:02,3,45.057209,-93.187546,Partly Cloudy,37.0,0.0,10.0,81.0,0.0
A-2030748,Oklahoma City,OK,2019-06-03 18:15:59,3,35.564205,-97.452194,Fair,84.0,0.0,10.0,61.0,0.0
A-2151157,Nashville,TN,2019-04-05 08:16:26,3,36.191708,-86.783951,Cloudy,58.0,0.0,6.0,87.0,0.0
A-7334795,Long Beach,CA,2019-10-09 18:00:00,2,33.824257,-118.22393,Fair,67.0,0.0,10.0,66.0,0.0
A-1766146,Hazel Park,MI,2019-10-21 07:42:59,2,42.476357,-83.11144300000002,Mostly Cloudy,50.0,0.0,4.0,96.0,0.0
A-2343595,Antioch,TN,2019-01-17 17:00:57,2,36.049301,-86.599991,Overcast,46.9,0.0,6.0,90.0,0.0
A-2245860,Groveport,OH,2019-03-29 06:57:18,2,39.889584,-82.88297299999998,Rain,50.0,,10.0,97.0,0.0
A-2104655,Los Angeles,CA,2019-05-15 16:21:46,3,34.034058,-118.385742,Cloudy,64.0,0.0,10.0,72.0,0.0
A-1986268,Anaheim,CA,2019-07-24 09:55:49,3,33.826202,-117.926056,Fair,87.0,0.0,10.0,39.0,0.0
A-7357010,Hollister,CA,2019-10-25 23:25:00,2,36.931441,-121.476526,,59.0,0.0,10.0,39.0,0.0
A-2281364,Santa Fe Springs,CA,2019-02-12 04:36:22,3,33.941235,-118.09655,Clear,39.0,,10.0,73.0,0.0
A-7739293,Boca Raton,FL,2019-06-17 17:07:25,2,26.35685,-80.11933,T-Storm,75.0,0.12,2.0,90.0,0.765
A-2195888,Charlotte,NC,2019-04-01 08:39:47,3,35.31197,-80.758339,Fair,37.0,0.0,10.0,45.0,0.0
A-2315618,San Antonio,TX,2019-01-03 08:41:59,2,29.396074,-98.511299,Mostly Cloudy,41.0,,10.0,82.0,0.0
A-7295651,Union Pier,MI,2019-12-31 07:41:49,3,41.82838,-86.67278,Cloudy,28.0,0.0,10.0,80.0,0.225
A-2156192,Silver Spring,MD,2019-04-09 09:54:31,2,39.015888,-77.01664699999998,Fair,67.0,0.0,10.0,70.0,1.0700000524520874
A-7294955,Rock Springs,WY,2019-12-30 18:12:34,3,41.67916,-108.78635,Cloudy,7.0,0.0,10.0,87.0,0.463
A-2342676,Brandon,FL,2019-01-17 10:54:03,3,27.941462,-82.329224,Clear,62.6,,10.0,55.0,0.0
A-2235119,Rowland Heights,CA,2019-03-22 16:01:27,2,33.991859000000005,-117.888893,Clear,66.0,,10.0,52.0,0.0
A-2225733,Yonkers,NY,2019-03-19 05:09:29,2,40.988224,-73.83943199999999,Clear,30.0,,10.0,66.0,0.0
A-2174849,Tampa,FL,2019-04-18 16:39:04,3,28.002077000000003,-82.327721,Fair,88.0,0.0,10.0,46.0,0.0
A-1925908,Dallas,TX,2019-08-21 12:13:20,2,33.012245,-96.797211,Fair,93.0,0.0,10.0,44.0,0.0
A-1976665,Miami,FL,2019-07-19 06:51:08,2,25.882521,-80.166031,Fair,81.0,0.0,10.0,77.0,0.0
A-1791480,Holbrook,NY,2019-11-01 04:34:41,3,40.815071,-73.08698299999998,Cloudy / Windy,49.0,0.01,10.0,74.0,1.1599999666213991
A-7344769,Newhall,CA,2019-10-17 06:50:00,2,34.369728,-118.501122,Fair,61.0,0.0,10.0,72.0,0.0
A-1869767,Georgetown,TN,2019-09-20 08:22:58,2,35.287769,-84.946373,Partly Cloudy,65.0,0.0,10.0,73.0,0.0
A-7365134,Upper Lake,CA,2019-11-01 12:02:00,2,39.163195,-122.920908,,,,,,0.0
A-2193922,Columbia,SC,2019-04-29 05:56:50,2,34.079941,-80.977074,Fair,60.0,0.0,10.0,83.0,0.0
A-2297208,Baton Rouge,LA,2019-02-20 09:33:07,2,30.540529,-91.19101,Overcast,64.0,0.08,2.5,93.0,0.0
A-2291712,Raleigh,NC,2019-02-18 16:47:20,2,35.871674,-78.720589,Mostly Cloudy,57.0,,10.0,36.0,0.0
A-2296840,Minneapolis,MN,2019-02-20 12:52:19,2,44.983364,-93.400726,Light Snow,26.1,0.01,1.5,81.0,0.0
A-2314520,Bay Shore,NY,2019-01-03 06:52:34,2,40.7328,-73.262375,Overcast,42.1,,10.0,92.0,0.0
A-1967987,Murrells Inlet,SC,2019-07-15 17:15:57,2,33.585529,-79.074821,Fair,89.0,0.0,10.0,70.0,0.0
A-2109389,Los Angeles,CA,2019-05-16 22:34:05,2,34.107849,-118.187683,Fair,59.0,0.0,10.0,64.0,0.0
A-2241514,Charlotte,NC,2019-03-27 15:04:45,2,35.333511,-80.796791,Clear,55.4,,10.0,26.0,0.0
A-2002474,Castro Valley,CA,2019-08-02 02:35:46,2,37.690311,-122.084953,Cloudy,61.0,0.0,10.0,87.0,0.5
A-7448584,Philadelphia,PA,2019-02-17 02:26:11,4,39.96576,-75.18647,Clear,28.9,,10.0,56.0,1.376
A-1769790,Miami,FL,2019-10-22 07:26:36,2,25.686621,-80.373863,Fog,75.0,0.0,0.25,100.0,0.0
A-2345938,Metairie,LA,2019-01-18 13:24:02,3,29.996832,-90.140022,Mostly Cloudy,70.0,0.0,10.0,78.0,0.0
A-2148623,Nashville,TN,2019-04-04 08:00:37,2,36.204849,-86.753609,Cloudy,55.0,0.0,10.0,53.0,0.0
A-2157977,Marysville,WA,2019-04-09 08:56:10,3,48.042545,-122.180344,Cloudy,47.0,0.0,10.0,97.0,0.0
A-7716509,Portland,OR,2019-04-01 11:34:00,2,45.59226,-122.68275,Cloudy,57.0,0.0,10.0,55.0,0.215
A-2049787,Augusta,GA,2019-06-13 10:58:20,2,33.403557,-82.04073299999997,Mostly Cloudy,77.0,0.0,10.0,69.0,0.0
A-7771339,Anderson,CA,2019-08-09 15:26:03,2,40.45868,-122.29831,Mostly Cloudy,82.0,0.0,10.0,31.0,0.257
A-2052975,Soledad,CA,2019-06-14 01:16:01,2,36.44625900000001,-121.359703,Haze,61.0,0.0,6.0,78.0,0.0
A-7462108,Studio City,CA,2019-01-12 07:29:31,2,34.13577,-118.36032,Overcast,51.1,0.0,10.0,83.0,1.115
A-7429034,Pendleton,OR,2019-03-17 20:25:21,2,45.66251,-118.78268,Clear,35.1,,10.0,85.0,0.517
A-2057038,Detroit,MI,2019-06-18 06:57:44,2,42.41555,-83.219223,Cloudy,60.0,0.0,10.0,75.0,0.0
A-2044143,Cedar Springs,MI,2019-06-11 06:56:36,2,43.175556,-85.575653,Partly Cloudy,52.0,0.0,10.0,86.0,0.0
A-1979440,Phoenix,AZ,2019-07-21 11:53:04,3,33.483494,-112.113106,,,,,,0.0
A-1781412,Holly Springs,NC,2019-10-28 10:43:23,2,35.632179,-78.851753,Fair,65.0,0.0,10.0,68.0,0.0
A-2002813,Fresh Meadows,NY,2019-08-03 15:28:46,3,40.741959,-73.78273,Partly Cloudy,85.0,0.0,10.0,48.0,0.0
A-7751123,Moorpark,CA,2019-08-29 17:58:00,2,34.273433000000004,-118.931717,Fair,79.0,0.0,10.0,52.0,0.0
A-2255240,Cary,NC,2019-01-31 22:13:09,3,35.831554,-78.763657,Scattered Clouds,30.9,,10.0,47.0,0.0
A-1756315,Fresno,CA,2019-10-15 15:32:10,2,36.743649,-119.809891,Fair,82.0,0.0,9.0,21.0,0.0
A-2299500,Oak Brook,IL,2019-02-21 02:06:42,3,41.844840999999995,-87.95395699999996,Partly Cloudy,30.0,,10.0,66.0,0.0
A-7393942,Davis,CA,2019-09-22 06:27:30,2,38.561966,-121.646257,Fair,54.0,0.0,10.0,77.0,0.013
A-2367937,Sacramento,CA,2019-01-29 08:29:35,2,38.556149,-121.443192,Clear,51.1,,1.5,96.0,0.0
A-2180425,Dayton,OH,2019-04-22 04:04:36,2,39.79797,-84.200073,Fair,46.0,0.0,10.0,83.0,0.0
A-7418941,Heber City,UT,2019-09-14 15:00:00,2,40.45635,-111.47023,,,,,,0.039
A-2216014,Queens Village,NY,2019-03-13 08:26:46,2,40.711102,-73.728104,Partly Cloudy,35.1,,10.0,57.0,0.0
A-2051175,New York,NY,2019-06-14 13:27:04,2,40.845737,-73.931702,Cloudy,66.0,0.0,10.0,54.0,0.0
A-1932130,Sayville,NY,2019-08-26 17:09:25,2,40.747021,-73.069611,Mostly Cloudy,71.0,0.0,10.0,59.0,0.0
A-1916610,Charlotte,NC,2019-09-17 13:40:11,2,35.189289,-80.750031,Mostly Cloudy,93.0,0.0,10.0,41.0,0.0
A-1727343,Tulsa,OK,2019-12-19 10:11:40,2,36.078892,-95.957977,Fair,43.0,0.0,10.0,47.0,0.0
A-1956112,San Antonio,TX,2019-07-08 14:41:34,2,29.352010999999997,-98.431412,Fair,94.0,0.0,10.0,41.0,0.0
A-1989825,Fort Worth,TX,2019-07-26 11:17:54,3,32.780914,-97.320648,Fair,81.0,0.0,10.0,49.0,0.0
A-2001231,Hollywood,FL,2019-08-02 15:49:15,3,26.033615,-80.164375,Mostly Cloudy,81.0,0.0,10.0,72.0,0.0
A-2174388,Winchester,VA,2019-04-18 07:36:41,2,39.162464,-78.157043,Partly Cloudy,48.0,0.0,10.0,93.0,0.0
A-1995521,Franklin,TN,2019-07-30 07:53:22,2,35.913219,-86.820351,Mostly Cloudy,76.0,0.0,10.0,76.0,0.0
A-7717888,Huntsville,AL,2019-05-04 23:07:14,2,34.686889,-86.57925999999998,Rain,64.0,0.08,1.0,96.0,0.273
A-2007964,Houston,TX,2019-08-06 15:49:46,2,29.68947,-95.553871,Mostly Cloudy,92.0,0.0,10.0,54.0,0.0
A-2184045,Houston,TX,2019-04-23 11:00:49,2,29.70055,-95.402008,Light Rain,72.0,0.0,10.0,84.0,0.0
A-1933008,Bamberg,SC,2019-08-26 04:04:06,2,33.31171,-81.027351,Cloudy,70.0,0.0,10.0,68.0,0.0
A-2309883,Fernandina Beach,FL,2019-02-27 19:48:11,2,30.6189,-81.52046999999997,Rain,62.8,0.23,4.0,98.0,0.0
A-1816879,Johnson City,TN,2019-11-13 14:44:30,2,36.307198,-82.34159100000002,Partly Cloudy,41.0,0.0,10.0,47.0,0.0
A-2208465,Columbus,OH,2019-03-08 06:57:48,2,40.05527100000001,-82.86367,Overcast,28.0,,10.0,63.0,0.0
A-1929729,Raleigh,NC,2019-08-23 09:06:43,2,35.71693,-78.655441,Mostly Cloudy,76.0,0.0,10.0,87.0,0.0
A-2362744,Seattle,WA,2019-01-27 19:14:45,3,47.477901,-122.271202,Overcast,43.0,,10.0,82.0,0.5
A-1741070,Oklahoma City,OK,2019-10-08 16:19:26,2,35.420769,-97.441277,Fair,75.0,0.0,10.0,33.0,0.0
A-2073857,Austin,TX,2019-06-26 19:02:30,2,30.379579999999997,-97.687714,Fair,85.0,0.0,10.0,65.0,0.0
A-2182930,Raleigh,NC,2019-04-23 15:48:05,2,35.844509,-78.579964,Mostly Cloudy,81.0,0.0,9.0,39.0,0.0
A-2134250,Mobile,AL,2019-04-30 15:53:34,2,30.70509,-88.144302,Mostly Cloudy,83.0,0.0,10.0,60.0,0.0
A-2204560,Bethany,LA,2019-03-06 06:21:12,2,32.375278,-94.000389,Partly Cloudy,27.0,,10.0,75.0,0.0
A-1720646,Massapequa,NY,2019-12-17 17:37:21,2,40.705791,-73.453232,Light Rain,34.0,0.03,7.0,89.0,0.0
A-7443778,Seaside,OR,2019-02-09 16:32:05,2,45.785227,-123.44181299999998,Clear,35.1,,10.0,78.0,0.562
A-1991114,Oklahoma City,OK,2019-07-27 12:36:43,2,35.594494,-97.585037,Fair,89.0,0.0,10.0,36.0,0.0
A-2278760,Albany,NY,2019-02-12 12:12:25,3,42.702296999999994,-73.849915,Heavy Snow,16.0,0.03,0.2,77.0,0.0
A-7416646,South San Francisco,CA,2019-09-12 19:34:00,2,37.638051,-122.404904,Fair,76.0,0.0,10.0,37.0,0.0
A-2127293,Edmond,OK,2019-05-28 19:58:33,2,35.634392,-97.623543,Fair,79.0,0.0,10.0,77.0,0.0
A-2040571,Miami,FL,2019-06-08 15:06:33,2,25.65517,-80.328873,Heavy T-Storm,76.0,0.3,0.5,,0.0
A-7423112,Tulare,CA,2019-03-05 12:31:31,2,36.20127,-119.32844,Overcast,57.0,0.0,10.0,83.0,0.627
A-2247431,Gardnerville,NV,2019-03-29 09:55:56,2,38.910461,-119.77919,Clear,30.0,,10.0,79.0,0.0
A-2015290,Rancho Cucamonga,CA,2019-08-08 17:49:15,2,34.13625,-117.558647,Fair,87.0,0.0,10.0,35.0,0.0
A-1916892,Saint Petersburg,FL,2019-09-17 08:52:42,2,27.744760999999997,-82.658287,Fair,84.0,0.0,10.0,69.0,0.0
A-1952321,Cookeville,TN,2019-07-05 08:42:15,3,36.131221999999994,-85.357628,Fair,79.0,0.0,10.0,78.0,0.0
A-1987099,Largo,FL,2019-07-25 07:23:23,2,27.916439,-82.75212900000002,Heavy Rain,73.0,0.19,2.0,96.0,0.0
A-7420685,Ocala,FL,2019-09-16 15:11:17,3,29.241945,-82.189851,Fair,91.0,0.0,10.0,53.0,0.54
A-2237980,Dallas,TX,2019-03-25 08:20:46,2,32.996311,-96.859818,Clear,55.4,,10.0,72.0,0.0
A-7409847,Oakland,CA,2019-09-06 07:24:10,2,37.77566,-122.23456000000002,Cloudy,62.0,0.0,5.0,80.0,0.345
A-7444959,Hood River,OR,2019-02-11 16:21:19,2,45.71194000000001,-121.5475,Light Rain,38.0,0.03,7.0,89.0,0.227
A-1790261,Oklahoma City,OK,2019-10-31 07:11:03,2,35.594639,-97.522568,Fair,25.0,0.0,10.0,75.0,0.0
A-2208064,Los Angeles,CA,2019-03-07 21:51:54,3,34.036823,-118.377548,Mostly Cloudy,51.1,,10.0,74.0,0.0
A-1711987,Shakopee,MN,2019-12-12 19:39:51,2,44.781963,-93.469521,Cloudy,17.0,0.0,9.0,74.0,0.0
A-2368545,Hackettstown,NJ,2019-01-30 10:22:39,2,40.856541,-74.835426,,,,,,0.0
A-1837207,Riverside,CA,2019-11-21 15:04:03,2,33.898289,-117.47628,Mostly Cloudy,64.0,0.0,10.0,48.0,0.6100000143051147
A-1765332,Montebello,CA,2019-10-19 15:38:57,2,34.03326,-118.130028,Fair,80.0,0.0,10.0,40.0,0.0
A-2000413,Los Angeles,CA,2019-08-01 08:48:09,3,34.025551,-118.20638999999998,Haze,74.0,0.0,6.0,68.0,0.0
A-2097029,Tustin,CA,2019-05-11 05:05:01,3,33.725590000000004,-117.804131,Mostly Cloudy,60.0,0.0,10.0,78.0,0.0
A-1796095,Charlotte,NC,2019-11-04 13:20:05,2,35.055161,-80.847008,Fair,59.0,0.0,10.0,41.0,0.0
A-7361951,Glide,OR,2019-10-30 15:27:11,2,43.33309000000001,-122.78254,Fair,58.0,0.0,10.0,24.0,0.812
A-1790421,Baton Rouge,LA,2019-10-31 19:40:01,2,30.47105,-91.12397,Fair,47.0,0.0,10.0,61.0,0.0
A-1831289,Portland,OR,2019-11-19 06:12:02,2,45.506039,-122.537666,Cloudy,51.0,0.0,10.0,89.0,0.0
A-1935500,Lexington,SC,2019-08-27 20:41:01,3,33.97805,-81.194801,Cloudy,77.0,0.01,10.0,88.0,5.949999809265138
A-1702155,Castaic,CA,2019-12-08 09:57:04,3,34.452618,-118.615135,Cloudy,59.0,0.0,10.0,87.0,0.0
A-2335940,Albuquerque,NM,2019-01-14 07:28:28,2,35.072781,-106.552597,Overcast,34.0,0.0,10.0,89.0,0.0
A-1740260,West Palm Beach,FL,2019-10-08 08:32:12,3,26.705763,-80.075211,Mostly Cloudy,77.0,0.0,10.0,94.0,0.0
A-2143049,Atlanta,GA,2019-04-02 11:32:45,2,33.770053999999995,-84.390091,Mostly Cloudy,53.0,0.0,10.0,38.0,0.0
A-1983526,Houston,TX,2019-07-23 13:07:35,2,29.870035,-95.38485,Cloudy,83.0,0.0,10.0,67.0,0.0
A-1994769,West Palm Beach,FL,2019-07-30 08:24:12,2,26.732429999999997,-80.110062,Partly Cloudy,83.0,0.0,10.0,74.0,0.0
A-2276629,Charlotte,NC,2019-02-11 15:14:34,2,35.202011,-80.844749,Overcast,53.1,,10.0,86.0,0.0
A-1949714,Elk River,MN,2019-07-03 06:23:46,2,45.25573,-93.519417,Fair,65.0,0.0,10.0,92.0,2.1600000858306885
A-1736610,Portland,OR,2019-10-06 13:36:54,3,45.396664,-122.746864,Fair,65.0,0.0,10.0,52.0,0.0
A-1794163,Stony Point,NY,2019-11-02 13:16:46,2,41.234623,-74.034065,Fair,47.0,0.0,10.0,50.0,0.0
A-2226313,Hollywood,FL,2019-03-19 09:20:18,3,26.033539,-80.16436800000002,Light Rain,68.0,0.18,1.8,90.0,0.0
A-1957531,Henrico,VA,2019-07-09 07:34:09,2,37.620819,-77.476105,Fair,71.0,0.0,10.0,78.0,0.0
A-1823379,Decatur,GA,2019-11-15 16:39:49,3,33.699409,-84.25574499999998,Light Rain,45.0,0.01,3.0,90.0,0.0
A-2021882,Baltimore,MD,2019-08-14 15:37:31,3,39.315018,-76.537575,Mostly Cloudy,82.0,0.0,10.0,74.0,0.0
A-7325180,Brisbane,CA,2019-12-22 00:12:00,2,37.70432,-122.39423,Partly Cloudy / Windy,57.0,0.0,10.0,57.0,0.008
A-2051106,Ronkonkoma,NY,2019-06-14 07:43:16,2,40.81287,-73.114708,Fair,63.0,0.0,10.0,75.0,2.549999952316284
A-1714004,Raleigh,NC,2019-12-13 06:51:23,2,35.739399,-78.56868,Light Rain,36.0,0.04,9.0,89.0,0.0
A-2006000,Sedona,AZ,2019-08-05 20:26:43,3,34.764244,-111.656647,Mostly Cloudy,78.0,0.0,10.0,39.0,0.0
A-2233568,Orlando,FL,2019-03-22 08:57:05,2,28.564039,-81.364449,Clear,60.1,,10.0,55.0,0.0
A-1957363,Cincinnati,OH,2019-07-09 08:56:09,3,39.215206,-84.676369,Fair,76.0,0.0,10.0,56.0,0.0
A-2331932,Dallas,TX,2019-01-11 11:39:53,2,32.894489,-96.711678,Overcast,50.0,,10.0,68.0,0.0
A-1839302,Tulsa,OK,2019-11-22 08:02:06,2,36.089893,-95.886551,Cloudy,40.0,0.0,10.0,86.0,0.0
A-1939564,Roslyn Heights,NY,2019-08-29 09:38:05,2,40.78492,-73.647369,Fair,75.0,0.0,10.0,53.0,2.650000095367432
A-2142899,Bunnell,FL,2019-04-02 12:23:30,2,29.49708,-81.26505300000002,Mostly Cloudy,68.0,,7.0,94.0,0.0
A-2332508,Riverside,CA,2019-01-10 22:22:47,3,33.916843,-117.287445,Clear,41.4,,3.0,100.0,0.0
A-7461289,Cameron,NC,2019-01-11 09:41:35,3,35.32223,-79.31036999999998,Clear,30.9,,10.0,57.0,0.0
A-2034411,Lakeland,FL,2019-06-05 05:09:08,3,28.05495100000001,-81.95321700000002,Fair,73.0,0.0,10.0,94.0,0.0
A-1744006,Houston,TX,2019-10-09 15:49:49,2,29.705545,-95.48465,Mostly Cloudy,87.0,0.0,10.0,57.0,0.0
A-1952996,Austin,TX,2019-07-05 15:38:32,2,30.22574,-97.773903,Fair,96.0,0.0,10.0,44.0,0.0
A-1756991,Cincinnati,OH,2019-10-16 04:51:03,2,39.201458,-84.374039,Light Rain,52.0,0.05,7.0,86.0,2.6700000762939453
A-2027337,Columbia,SC,2019-08-16 16:35:44,3,34.027473,-81.10296600000002,Partly Cloudy,94.0,0.0,10.0,46.0,0.0
A-1727812,Olympia,WA,2019-12-19 16:22:53,3,47.016899,-122.905823,Light Rain,49.0,0.06,6.0,90.0,0.0
A-1728284,Lynnfield,MA,2019-12-20 08:29:29,3,42.52541,-71.06482700000002,Fair,16.0,0.0,10.0,57.0,0.0
A-1749721,Vista,CA,2019-10-11 07:45:21,2,33.244999,-117.227119,Fair,64.0,0.0,10.0,16.0,0.0
A-1873910,Lehigh Acres,FL,2019-09-23 08:04:39,2,26.591391,-81.697342,Fair,70.0,0.0,10.0,87.0,0.0
A-2315289,Cartersville,GA,2019-01-03 16:24:32,3,34.206154,-84.761177,Mostly Cloudy,53.1,,10.0,93.0,0.0
A-7287345,Fresno,CA,2019-12-23 20:48:00,2,36.755104,-119.758157,Cloudy,48.0,0.0,3.0,93.0,0.0
A-1848307,Minnesota City,MN,2019-11-27 06:55:21,2,44.119598,-91.768883,Light Snow,34.0,0.0,7.0,100.0,0.0
A-2209330,Denton,TX,2019-03-08 15:29:51,2,33.130081,-97.043701,Clear,77.0,,10.0,40.0,0.0
A-7749028,Rocklin,CA,2019-08-28 17:02:00,2,38.806763,-121.200759,Fair,93.0,0.0,10.0,26.0,0.0
A-1814844,Kansas City,MO,2019-11-12 09:30:55,3,39.047852,-94.457977,Fair,16.0,0.0,10.0,52.0,0.0
A-2150772,San Antonio,TX,2019-04-05 20:53:43,3,29.434605,-98.645416,Partly Cloudy,75.0,0.0,10.0,67.0,0.0
A-7357454,San Fernando,CA,2019-10-26 19:11:00,2,34.282624,-118.421136,Fair,75.0,,10.0,19.0,0.0
A-1952876,Overland Park,KS,2019-07-05 10:15:39,3,38.975765,-94.71273,Light Rain with Thunder,73.0,0.0,10.0,93.0,0.0
A-7402455,Valley Village,CA,2019-09-29 01:12:00,2,34.157612,-118.39648400000002,Cloudy,61.0,0.0,10.0,75.0,0.0
A-2059450,Buena Park,CA,2019-06-18 19:45:40,2,33.856007,-117.994263,Fair,66.0,0.0,10.0,73.0,0.0
A-1975909,Monrovia,CA,2019-07-18 15:13:00,2,34.135071,-118.000801,Fair,80.0,0.0,10.0,48.0,0.0
A-2023645,Mesa,AZ,2019-08-14 18:13:46,2,33.328812,-111.68511200000002,Fair,111.0,0.0,10.0,8.0,0.9300000071525574
A-2021980,Cincinnati,OH,2019-08-14 10:23:19,2,39.194969,-84.459991,Cloudy,77.0,0.0,5.0,84.0,0.4399999976158142
A-1787411,Moncks Corner,SC,2019-10-30 19:55:06,2,33.167721,-80.01487,Fair,72.0,0.0,10.0,100.0,0.0
A-2107294,Grand Rapids,MI,2019-05-17 16:18:56,3,42.912537,-85.536163,Cloudy,67.0,0.0,10.0,52.0,0.0
A-1846035,San Antonio,TX,2019-11-26 18:00:30,3,29.489590000000003,-98.574303,Cloudy,75.0,0.0,10.0,60.0,0.0
A-2154581,Brillion,WI,2019-04-08 05:28:50,2,44.240093,-88.125984,Partly Cloudy,50.0,0.0,7.0,94.0,0.0
A-1936575,Phoenix,AZ,2019-08-27 13:44:09,2,33.45134,-112.012909,Fair,107.0,0.0,10.0,23.0,0.0
A-1849513,Bakersfield,CA,2019-11-27 14:20:05,2,35.351391,-119.039406,Partly Cloudy,49.0,0.0,10.0,74.0,0.0
A-7331230,Seaside,OR,2019-10-07 14:07:05,2,45.90055,-123.65661,Cloudy,60.0,0.0,10.0,86.0,1.4880000000000002
A-2150768,San Antonio,TX,2019-04-05 14:43:31,2,29.44487,-98.659142,Fair,81.0,0.0,10.0,58.0,0.0
A-7312109,Gardena,CA,2019-12-12 19:43:30,2,33.87279,-118.27555,Haze,62.0,0.0,1.0,70.0,0.0
A-7354694,Monterey Park,CA,2019-10-24 18:21:00,2,34.057331,-118.165009,Partly Cloudy,91.0,0.0,10.0,9.0,0.0
A-2095829,Aurora,CO,2019-05-10 04:58:20,2,39.761913,-104.791138,Mostly Cloudy,35.0,0.0,10.0,91.0,0.0
A-2313930,Denver,CO,2019-01-02 16:18:22,3,39.824581,-104.96578999999998,Clear,39.2,,30.0,31.0,0.0
A-2213181,Toney,AL,2019-03-11 06:40:02,2,34.877121,-86.64298199999998,Mostly Cloudy,52.2,,10.0,62.0,0.0
A-7393889,Stockton,CA,2019-09-21 22:13:00,2,37.933292,-121.296666,Fair,75.0,0.0,10.0,38.0,0.0
A-7314770,Carson,CA,2019-12-13 22:22:00,2,33.83935,-118.263543,Mostly Cloudy,54.0,,4.0,100.0,0.0
A-1935252,Dunedin,FL,2019-08-27 08:30:39,2,28.01943,-82.756073,Fair,84.0,0.0,10.0,76.0,0.0
A-2169061,Hattiesburg,MS,2019-04-15 07:21:01,2,31.186405,-89.251373,Fair,42.0,0.0,10.0,92.0,0.0
A-2077977,Dallas,TX,2019-06-28 13:38:48,2,32.860439,-96.857368,Fair,91.0,0.0,10.0,45.0,0.0
A-7441206,Salinas,CA,2019-02-05 09:12:45,2,36.62189,-121.68458,Mostly Cloudy,42.1,,10.0,79.0,0.457
A-2291525,Charlotte,NC,2019-02-18 08:49:34,2,35.215801,-80.88511700000002,Overcast,45.0,,1.5,90.0,0.0
A-7400381,West Sacramento,CA,2019-09-27 12:31:00,2,38.575643,-121.568254,Cloudy,68.0,0.0,10.0,65.0,0.0
A-1910061,New Haven,CT,2019-09-13 16:40:55,2,41.338715,-72.978088,Fair,71.0,0.0,10.0,49.0,0.0
A-2281092,Tucson,AZ,2019-02-12 07:39:50,3,32.177296000000005,-110.944252,Clear,35.1,,10.0,54.0,0.0
A-1840725,Oklahoma City,OK,2019-11-23 20:56:05,2,35.39104099999999,-97.52124,Fair,36.0,0.0,10.0,89.0,0.0
A-2312181,San Pablo,CA,2019-01-01 10:47:58,2,37.954788,-122.331017,Clear,54.0,,10.0,22.0,0.0
A-1824495,Lakewood,CO,2019-11-15 06:59:03,2,39.74382,-105.109581,Partly Cloudy,43.0,0.0,10.0,49.0,0.0
A-1773129,Austin,TX,2019-10-23 07:30:31,2,30.227486,-97.72776,Fair,49.0,0.0,10.0,86.0,0.2800000011920929
A-2247215,Houston,TX,2019-03-29 17:46:04,3,29.661488,-95.55764,Overcast,73.4,,9.0,65.0,0.0
A-7416623,Cupertino,CA,2019-09-12 17:57:30,2,37.325985,-122.050873,Partly Cloudy,,0.0,,,0.0
A-2296911,Kansas City,KS,2019-02-20 09:30:51,3,39.044441,-94.656311,,,,,,0.4600000083446503
A-2178110,Tulsa,OK,2019-04-19 08:36:51,2,36.060818,-95.859306,Fair,54.0,0.0,10.0,62.0,0.0
A-2363434,Chattanooga,TN,2019-01-28 09:13:59,2,35.036076,-85.16268199999998,Partly Cloudy,33.1,,10.0,85.0,0.0
A-1774179,Irvine,CA,2019-10-23 16:29:59,3,33.669525,-117.822548,Fair,84.0,0.0,10.0,26.0,0.0
A-1946506,Linden,MI,2019-07-02 17:25:10,2,42.798759,-83.825119,Mostly Cloudy,88.0,0.0,10.0,49.0,0.0
A-2054294,Lewisville,TX,2019-06-16 17:39:24,3,33.030766,-96.993477,T-Storm / Windy,70.0,0.05,7.0,84.0,0.0
A-7731023,West Valley City,UT,2019-04-30 07:51:00,2,40.72576,-112.005507,Fair,45.0,0.0,10.0,40.0,0.5660000000000001
A-2130715,Irwin,PA,2019-05-30 10:19:04,2,40.327301,-79.71843,Mostly Cloudy,67.0,0.07,10.0,93.0,0.0
A-2188034,Saint Louis,MO,2019-04-25 15:31:58,2,38.573238,-90.235909,Light Rain,58.0,0.04,6.0,93.0,2.380000114440918
A-1931929,Corona,CA,2019-08-25 13:05:06,3,33.776798,-117.48745,Fair,93.0,0.0,10.0,37.0,0.0
A-2368862,Charlotte,NC,2019-01-30 09:08:10,3,35.23785,-80.85436999999997,Partly Cloudy,28.9,,10.0,61.0,0.0
A-1739242,Carlsbad,CA,2019-10-07 07:01:52,2,33.10157,-117.30983700000002,Fair,58.0,0.0,10.0,58.0,1.4700000286102295
A-2152026,Wallingford,CT,2019-04-06 16:31:14,3,41.423347,-72.82466099999998,Partly Cloudy,63.0,0.0,10.0,43.0,3.670000076293945
A-2262476,Charleston,SC,2019-02-04 14:47:38,3,32.883232,-80.01963,Partly Cloudy,71.1,,10.0,31.0,0.0
A-2208740,Fort Myers,FL,2019-03-08 08:57:17,3,26.499165,-81.794235,Clear,66.9,,10.0,66.0,0.0
A-1939696,York,PA,2019-08-29 07:28:08,2,39.901569,-76.789253,Fair,63.0,0.0,10.0,84.0,0.0
A-1717391,Hazel Crest,IL,2019-12-15 14:35:39,3,41.582352,-87.678848,Fair,25.0,0.0,10.0,70.0,1.0599999427795408
A-2253843,Bakersfield,CA,2019-03-01 12:44:47,2,35.38728,-119.044647,Mostly Cloudy,61.0,,10.0,67.0,0.0
A-2300717,Pasadena,CA,2019-02-21 16:44:06,3,34.148196999999996,-118.07336399999998,,,,,,0.0
A-7325923,Hawthorne,CA,2019-12-22 18:14:00,2,33.928085,-118.340919,Cloudy,62.0,0.0,10.0,65.0,0.0
A-7419031,Gold Hill,OR,2019-09-14 18:26:00,2,42.42396,-123.16329,Fair,86.0,0.0,10.0,16.0,1.827
A-1844620,Rochester,NY,2019-11-26 06:52:34,2,43.209549,-77.693588,Fair,45.0,0.0,10.0,65.0,0.0
A-1997647,Antioch,TN,2019-07-31 16:17:02,3,36.038338,-86.647743,Mostly Cloudy,88.0,0.0,10.0,49.0,0.0
A-2330796,Vandalia,OH,2019-01-11 06:53:44,3,39.865314,-84.189072,Overcast,26.1,,10.0,71.0,0.0
A-2354864,Austin,TX,2019-01-23 07:46:38,2,30.228951,-97.758728,Clear,35.1,,10.0,48.0,0.0
A-1888037,Ellenton,FL,2019-09-02 20:56:08,2,27.526873,-82.512558,Fair,84.0,0.0,10.0,74.0,0.0
A-2106926,San Leandro,CA,2019-05-16 19:56:32,3,37.68718,-122.1334,Haze,54.0,0.02,6.0,77.0,0.1099999994039535
A-2322810,Santa Fe,NM,2019-01-07 06:00:56,2,35.65222199999999,-105.956612,Clear,24.1,,10.0,88.0,2.2300000190734863
A-2105071,Towson,MD,2019-05-16 18:15:49,3,39.413197,-76.60051700000002,,77.0,0.0,,28.0,0.0
A-1951460,San Antonio,TX,2019-07-04 14:51:35,2,29.436131,-98.62365,Mostly Cloudy,90.0,0.0,10.0,59.0,1.3200000524520874
A-1968082,Minneapolis,MN,2019-07-15 18:55:43,2,44.999077,-93.349236,Heavy T-Storm,73.0,0.14,1.0,96.0,0.0
A-1698673,Richmond,VA,2019-12-06 19:15:27,3,37.54871,-77.432549,Cloudy,51.0,0.0,10.0,52.0,0.2700000107288361
A-2021531,Rancho Cucamonga,CA,2019-08-13 17:58:24,2,34.136379,-117.558456,Fair,91.0,0.0,10.0,30.0,0.0
A-1799264,Kansas City,MO,2019-11-05 06:36:50,3,39.18742,-94.5168,Fair,35.0,0.0,10.0,89.0,0.0
A-2294121,Savannah,GA,2019-02-19 08:22:29,2,32.004833000000005,-81.283218,Overcast,56.8,,10.0,67.0,0.0
A-1874403,Omaha,NE,2019-09-23 09:49:34,2,41.147503,-96.138023,Fair,69.0,0.0,10.0,72.0,0.0
A-7731585,Bozeman,MT,2019-05-01 20:16:44,4,45.71218,-111.06198,Cloudy,45.0,0.0,10.0,37.0,6.402
A-7713636,Renton,WA,2019-04-22 22:01:16,4,47.46727,-122.2284,Cloudy,53.0,0.0,10.0,93.0,0.289
A-1877242,Tulsa,OK,2019-09-24 07:25:31,2,36.04636,-95.964088,T-Storm,73.0,0.08,7.0,93.0,0.0
A-1739624,New York,NY,2019-10-08 11:30:51,2,40.782681,-73.943413,Mostly Cloudy,61.0,0.0,10.0,58.0,0.0
A-1948398,San Mateo,CA,2019-07-02 15:08:39,2,37.604572,-122.196495,Fair,66.0,0.0,10.0,64.0,0.0
A-1891961,Pompano Beach,FL,2019-09-04 13:37:04,2,26.232571000000004,-80.18618000000002,Fair,93.0,0.0,10.0,56.0,0.0
A-1955021,Hartford,CT,2019-07-08 16:54:19,3,41.767368,-72.669441,Fair,82.0,0.0,10.0,39.0,0.0
A-7732951,Chiloquin,OR,2019-06-03 06:52:36,2,42.938813,-121.82765,Fair,50.0,0.0,10.0,86.0,1.585
A-2033605,Modesto,CA,2019-06-04 06:16:01,2,37.680065,-121.04938500000002,Fair,67.0,0.0,10.0,70.0,0.0
A-7436399,Raleigh,NC,2019-03-01 19:56:13,3,35.77539,-78.57368000000002,Rain,39.9,0.12,1.5,100.0,0.737
A-7443386,Wethersfield,CT,2019-02-09 04:07:02,4,41.72449,-72.67061,Clear,25.0,,10.0,36.0,0.8170000000000001
A-1844198,Fairfield,CA,2019-11-25 06:37:54,3,38.299834999999995,-122.03408799999998,Fair,35.0,0.0,10.0,86.0,0.0
A-2019051,Palmdale,CA,2019-08-12 17:46:45,2,34.557949,-118.141243,Partly Cloudy,91.0,0.0,10.0,18.0,0.0
A-1745529,Lithia Springs,GA,2019-10-10 05:53:40,2,33.776756,-84.605835,Fair,60.0,0.0,10.0,90.0,0.0
A-1770161,Forest Park,GA,2019-10-22 08:30:54,3,33.585526,-84.377724,Light Rain,58.0,0.02,6.0,90.0,0.0
A-1802560,Pensacola,FL,2019-11-06 18:50:18,2,30.40451,-87.276909,Mostly Cloudy,68.0,0.0,9.0,93.0,0.0
A-2107456,New York,NY,2019-05-17 10:40:27,2,40.768379,-73.992813,Fair,71.0,0.0,10.0,53.0,0.0
A-2009810,Justice,IL,2019-08-07 07:47:13,3,41.74437,-87.849411,Fair,73.0,0.0,10.0,76.0,0.0
A-2212219,Charlotte,NC,2019-03-11 13:01:06,3,35.260899,-80.841225,Mostly Cloudy,68.0,,10.0,32.0,0.0
A-7390583,Emigrant Gap,CA,2019-09-19 20:20:00,2,39.303314,-120.657263,Fair,48.0,0.0,10.0,83.0,0.0
A-1941746,Castaic,CA,2019-08-29 09:16:45,2,34.49062,-118.617599,Fair,76.0,0.0,9.0,67.0,0.0
A-1931050,Tucson,AZ,2019-08-23 15:39:32,3,32.17712,-110.945198,Fair,95.0,0.0,10.0,26.0,0.0
A-7734550,Smyrna,GA,2019-06-06 17:24:19,2,33.88621,-84.47175,Light Drizzle,75.0,0.0,10.0,78.0,0.031
A-7470511,Saint Clair,MO,2019-01-27 19:08:41,4,38.38268,-90.96413,Overcast,32.0,,10.0,75.0,1.335
A-1905212,Louisville,KY,2019-09-11 16:57:50,3,38.223087,-85.751137,Partly Cloudy,95.0,0.0,10.0,38.0,0.0
A-1695969,Dayton,OH,2019-12-05 16:21:57,3,39.759174,-84.202126,Fair,46.0,0.0,10.0,43.0,0.0
A-2080133,San Francisco,CA,2019-06-30 12:10:19,2,37.761818,-122.405869,Fair,66.0,0.0,10.0,63.0,0.0
A-1734987,Boiling Springs,SC,2019-12-24 07:57:08,2,35.0182,-81.949158,Fair,50.0,0.0,10.0,87.0,0.0
A-1882478,Lancaster,CA,2019-09-26 08:20:14,2,34.660198,-118.210121,Fair,68.0,0.0,10.0,63.0,0.0
A-7752230,Whittier,CA,2019-08-30 08:27:00,2,33.993558,-118.069315,Fair,77.0,0.0,10.0,66.0,0.0
A-1690959,Benson,NC,2019-12-03 16:18:24,3,35.38998,-78.518005,Fair,50.0,0.0,10.0,50.0,10.479999542236328
A-7395375,Perris,CA,2019-09-23 06:35:00,2,33.83521,-117.247605,Fair,58.0,0.0,10.0,81.0,0.0
A-7726577,San Jose,CA,2019-05-22 08:26:14,2,37.35595,-121.90948,Partly Cloudy,58.0,0.0,10.0,75.0,0.384
A-1774077,Canyon Country,CA,2019-10-23 05:38:16,2,34.433765,-118.38575,Fair,61.0,0.0,10.0,44.0,0.0
A-1719776,Colorado Springs,CO,2019-12-16 17:20:08,2,38.846218,-104.713852,Mostly Cloudy,20.0,0.0,7.0,85.0,0.0
A-1710966,Hartford,CT,2019-12-12 11:06:37,2,41.737751,-72.662849,Fair,29.0,0.0,10.0,49.0,2.0699999332427983
A-7750022,Pueblo,CO,2019-08-29 16:24:32,3,38.114784,-104.67291,Cloudy,99.0,0.0,10.0,7.0,0.052
A-2002494,Oakland,CA,2019-08-02 06:43:44,3,37.825104,-122.308113,Haze,61.0,0.0,6.0,83.0,0.0
A-2014372,Houston,TX,2019-08-09 14:29:53,2,29.76272,-95.35778,Mostly Cloudy,96.0,0.0,10.0,47.0,0.0
A-1743046,Central,SC,2019-10-09 06:57:22,2,34.763889,-82.831329,Cloudy,60.0,0.0,10.0,86.0,0.0
A-1763273,Charleston,SC,2019-10-18 12:44:29,2,32.804970000000004,-79.933167,Fair,68.0,0.0,9.0,40.0,3.0899999141693115
A-2227701,San Marcos,CA,2019-03-19 11:50:54,2,33.117298,-117.214943,Haze,63.0,,4.0,72.0,0.0
A-2099368,Nashville,TN,2019-05-13 11:18:14,2,36.07114,-86.947037,Mostly Cloudy,63.0,0.0,10.0,52.0,0.0
A-2121016,Fenton,MI,2019-05-24 11:56:04,2,42.676497999999995,-83.760086,Partly Cloudy,61.0,0.0,10.0,70.0,0.0
A-2277300,Saint Paul,MN,2019-02-11 09:39:44,3,44.94862,-92.902069,Overcast,21.2,,10.0,85.0,0.0
A-7418574,Cerritos,CA,2019-09-13 16:01:00,2,33.876381,-118.102337,Fair,93.0,0.0,10.0,36.0,0.0
A-7289329,Kingman,AZ,2019-12-26 15:36:35,4,35.21345,-114.05101,Light Rain,37.0,0.1,9.0,86.0,1.399
A-1703944,Buffalo Grove,IL,2019-12-09 07:11:17,2,42.175449,-87.991989,Light Rain,47.0,0.0,3.0,86.0,0.0
A-1907090,Sacramento,CA,2019-09-11 18:23:17,2,38.588619,-121.392227,Fair,84.0,,10.0,23.0,0.0
A-2285490,Jacksonville,FL,2019-02-14 09:37:26,2,30.315269,-81.73069,Mostly Cloudy,55.0,,10.0,62.0,0.0
A-1859301,Earth City,MO,2019-10-02 04:11:42,2,38.775986,-90.460297,Fair,76.0,0.0,10.0,69.0,0.0
A-2308307,Chandler,AZ,2019-02-26 17:04:18,2,33.261604,-111.881027,Overcast,69.8,,10.0,25.0,0.0
A-1993933,Modesto,CA,2019-07-29 18:19:13,2,37.638741,-120.847702,Partly Cloudy,94.0,0.0,10.0,17.0,0.0
A-1934347,Castroville,CA,2019-08-26 11:16:13,2,36.7728,-121.741501,Fair,74.0,0.0,9.0,55.0,0.0
A-2023636,Chandler,AZ,2019-08-14 17:36:54,2,33.232811,-111.858391,Fair,111.0,,10.0,7.0,0.0
A-1952075,Canajoharie,NY,2019-07-05 05:36:51,2,42.906890999999995,-74.562363,Fair,75.0,0.0,10.0,65.0,0.0
A-2206547,Mullins,SC,2019-03-07 14:52:11,2,34.191952,-79.309303,Clear,55.4,,10.0,29.0,0.0
A-1795081,New Ulm,MN,2019-11-03 17:34:04,2,44.252331,-94.394547,Mostly Cloudy,45.0,0.0,10.0,66.0,0.0
A-2160157,Hermitage,TN,2019-04-10 06:50:46,2,36.163639,-86.616699,Partly Cloudy,51.0,0.0,10.0,77.0,0.0
A-2159430,Savannah,GA,2019-04-10 08:19:29,2,31.98372100000001,-81.22179399999997,Fair,64.0,0.0,10.0,94.0,0.0
A-2064814,Richmond,VA,2019-06-21 04:11:18,2,37.552055,-77.442627,Fair,75.0,0.0,10.0,66.0,0.0
A-7330700,Los Angeles,CA,2019-10-06 16:37:00,2,33.987602,-118.137419,Fair,80.0,0.0,10.0,40.0,0.0
A-2227479,Concord,CA,2019-03-19 09:46:59,2,37.977463,-122.044296,Clear,60.1,,10.0,62.0,0.0
A-2271647,Veneta,OR,2019-02-07 08:16:01,2,44.045605,-123.351639,Overcast,28.9,,0.5,92.0,0.0
A-1797703,San Mateo,CA,2019-11-04 16:17:46,2,37.505795,-122.118591,,,,,,0.0
A-7408876,Pomona,CA,2019-09-04 23:03:30,2,34.02367,-117.749385,Fair,81.0,,10.0,58.0,0.01
A-7738500,Milwaukee,WI,2019-06-14 19:35:54,4,43.10147,-88.05813,Fair,73.0,0.0,10.0,33.0,0.501
A-2149938,Charlotte,NC,2019-04-05 19:51:47,2,35.227348,-80.845299,Cloudy,59.0,0.0,9.0,87.0,0.0
A-7335031,Lake Zurich,IL,2019-10-10 11:50:34,2,42.21157,-88.11143,Fair,70.0,0.0,10.0,61.0,0.035
A-7423682,Oakdale,CA,2019-03-06 13:59:26,2,37.77674,-120.77472,Scattered Clouds,66.0,,10.0,59.0,0.0
A-1915418,Houston,TX,2019-09-16 21:21:54,3,29.777626,-95.381111,Partly Cloudy,80.0,0.0,10.0,79.0,0.0
A-1735761,Hattiesburg,MS,2019-12-24 12:38:30,2,31.270081,-89.46637700000002,Fair,71.0,0.0,10.0,57.0,0.0
A-2317807,Campbellton,FL,2019-01-04 19:15:25,2,30.88736500000001,-85.36763,,,,,,0.0
A-2142574,Charlotte,NC,2019-04-02 08:10:53,2,35.234055,-80.84925799999998,Cloudy,41.0,0.0,10.0,53.0,0.0
A-7350846,Hines,OR,2019-10-22 17:41:28,2,43.52344,-119.2439,Cloudy,58.0,0.0,10.0,39.0,2.272
A-1945806,Pensacola,FL,2019-07-01 19:09:50,2,30.53517,-87.21614100000002,Fair,87.0,0.0,10.0,61.0,0.0
A-2192355,Corning,CA,2019-04-27 07:49:42,3,39.908169,-122.200668,Fair,63.0,0.0,10.0,50.0,1.8899999856948853
A-2195033,San Jose,CA,2019-04-29 10:46:28,2,37.364048,-121.90155,Fair,63.0,0.0,10.0,63.0,0.0
A-7431267,Salem,NH,2019-03-22 08:45:21,2,42.784478,-71.260042,Light Rain,37.0,0.02,6.0,89.0,0.089
A-1977848,Phoenix,AZ,2019-07-19 17:09:41,2,33.523769,-112.06501000000002,,,,,,0.0
A-2248611,Schodack Landing,NY,2019-03-31 14:21:12,3,42.490192,-73.67916899999999,Overcast,43.0,0.0,10.0,62.0,0.0
A-2272427,Manassas,VA,2019-02-08 17:17:34,2,38.802429,-77.52262900000002,Clear,50.0,,10.0,32.0,0.3100000023841858
A-2216985,Gurnee,IL,2019-03-13 07:39:44,2,42.36404,-87.97821,Overcast,39.9,0.0,2.0,93.0,0.0
A-2175702,Prattville,AL,2019-04-18 08:23:39,2,32.460049,-86.38793199999998,Fair,65.0,0.0,10.0,80.0,0.0
A-7748630,Bouse,AZ,2019-08-27 23:45:18,4,33.870090999999995,-113.930842,Fair,95.0,0.0,10.0,25.0,1.039
A-7706073,Kaysville,UT,2019-04-09 14:33:00,2,41.040902,-111.951583,Light Rain,44.0,0.05,10.0,86.0,0.057
A-1850844,Larsen,WI,2019-11-28 05:07:15,2,44.234165,-88.736847,Cloudy,32.0,0.0,10.0,64.0,0.0
A-7330652,Los Angeles,CA,2019-10-06 14:48:00,2,34.105611,-118.254352,Fair,83.0,0.0,10.0,38.0,0.0
A-2177638,Liberty,MO,2019-04-19 17:19:19,3,39.244263,-94.456322,Partly Cloudy,61.0,,10.0,29.0,0.0
A-7402258,Lafayette,CA,2019-09-28 22:39:00,2,37.891181,-122.150167,Fair,59.0,0.0,10.0,51.0,0.0
A-7457683,Hopewell Junction,NY,2019-01-05 12:48:06,2,41.508624,-73.79350500000002,Rain,37.9,0.17,2.0,93.0,0.713
A-2051287,Brooklyn,MD,2019-06-14 06:52:33,3,39.203819,-76.63020300000002,,62.0,0.0,,56.0,0.0
A-2173751,Wilsonville,OR,2019-04-17 17:45:57,3,45.335964,-122.769264,Fair,65.0,0.0,10.0,54.0,3.839999914169312
A-1831680,West Newton,MA,2019-11-20 16:35:47,3,42.347683,-71.231789,Light Rain,38.0,0.01,6.0,86.0,0.0
A-7772773,Green River,UT,2019-08-13 01:25:00,2,38.849076,-110.930588,Fair,68.0,0.0,10.0,16.0,2.017
A-2037446,Phoenix,AZ,2019-06-06 12:30:12,2,33.48386,-112.070862,Partly Cloudy,96.0,0.0,10.0,14.0,0.0
A-1713185,North Hollywood,CA,2019-12-12 06:11:37,2,34.164898,-118.382805,Mostly Cloudy,50.0,0.0,10.0,74.0,0.0
A-1943041,Shawnee,KS,2019-08-30 14:31:52,3,39.007374,-94.694038,Fair,79.0,0.0,10.0,52.0,0.0
A-2298614,Cleveland,OH,2019-02-21 06:55:47,2,41.384521,-81.73465,Overcast,35.1,,10.0,76.0,0.0
A-2266013,Salt Lake City,UT,2019-02-05 19:43:02,3,40.644917,-111.939163,Overcast,27.9,,1.0,100.0,0.0
A-1888277,Minneapolis,MN,2019-09-02 09:02:13,2,45.04153400000001,-93.284927,Cloudy,62.0,0.0,10.0,86.0,0.0
A-2009898,Oklahoma City,OK,2019-08-07 15:05:16,2,35.47398,-97.51429,Partly Cloudy,102.0,0.0,10.0,33.0,0.0
A-1901814,Camp Verde,AZ,2019-09-09 06:54:42,3,34.578156,-111.884453,Fair,59.0,0.0,10.0,55.0,0.0
A-1688532,Easley,SC,2019-12-02 06:33:13,2,34.80772,-82.60221899999998,Fair,43.0,0.0,10.0,57.0,0.0
A-2353744,Dayton,OH,2019-01-23 06:38:30,2,39.788284,-84.18177800000002,Overcast,40.8,0.01,10.0,88.0,0.0
A-1789796,Spartanburg,SC,2019-10-31 16:22:43,2,34.938109999999995,-82.018463,Rain,72.0,0.0,10.0,83.0,0.0
A-7759355,Bronx,NY,2019-07-16 09:13:31,2,40.82281,-73.88490999999998,Fair,80.0,0.0,10.0,47.0,0.643
A-2119515,Winter Springs,FL,2019-05-23 12:17:56,2,28.647587,-81.268066,Partly Cloudy,87.0,0.0,10.0,55.0,0.0
A-7355570,San Jose,CA,2019-10-25 17:30:30,2,37.35215,-121.83807,Partly Cloudy,82.0,,10.0,19.0,0.0
A-7379722,Compton,CA,2019-11-12 14:12:00,2,33.916188,-118.224378,Haze,69.0,0.0,6.0,65.0,0.0
A-7753979,Miami,FL,2019-07-03 10:49:30,4,25.82432,-80.20647,Mostly Cloudy,93.0,0.0,10.0,54.0,6.011
A-7449272,Spanish Fork,UT,2019-02-18 07:54:00,2,40.15113,-111.722049,Mostly Cloudy,17.1,,10.0,88.0,0.075
A-1716479,Minneapolis,MN,2019-12-14 16:02:50,2,45.053566,-93.286102,Fair,10.0,0.0,10.0,67.0,0.0
A-7413696,Roseburg,OR,2019-09-10 17:53:54,2,43.124819,-123.363766,Mostly Cloudy,69.0,0.0,10.0,61.0,0.8420000000000001
A-2054576,Arcadia,CA,2019-06-16 04:23:58,3,34.147789,-118.031532,Cloudy,66.0,0.0,8.0,73.0,0.0
A-1857043,Austin,TX,2019-10-01 15:45:22,2,30.434242,-97.769287,Fair,98.0,0.0,10.0,30.0,0.0
A-7410411,Fontana,CA,2019-09-06 13:56:00,2,34.067011,-117.445295,Fair,97.0,0.0,10.0,25.0,0.0
A-1729928,Dallas,TX,2019-12-20 07:00:24,2,32.860653000000006,-96.719566,Cloudy,44.0,0.0,10.0,53.0,0.0
A-7406900,Corona,CA,2019-09-03 20:58:00,2,33.784107,-117.49201200000002,Fair,82.0,0.0,10.0,51.0,0.0
A-1679648,El Paso,TX,2019-12-26 09:57:28,2,31.760502,-106.270142,Fair,46.0,,10.0,66.0,0.0
A-2049531,Clearwater,FL,2019-06-13 17:50:19,2,28.032669,-82.738297,Fair,80.0,0.02,10.0,79.0,0.0
A-2239209,Charlotte,NC,2019-03-26 15:00:54,2,35.17411,-80.80291,Mostly Cloudy,55.0,,10.0,57.0,0.0
A-1759543,Philadelphia,PA,2019-10-17 04:56:56,3,39.972927,-75.122299,Cloudy,54.0,0.0,10.0,59.0,0.0
A-7356216,Ventura,CA,2019-10-25 18:16:00,2,34.272107,-119.278789,Fair,75.0,0.0,10.0,43.0,0.0
A-1969741,Charlotte,NC,2019-07-16 08:39:12,2,35.094944,-80.86635600000002,Mostly Cloudy,81.0,0.0,10.0,74.0,0.0
A-2271156,Dallas,TX,2019-02-07 05:33:17,3,32.662209000000004,-96.822899,Rain,60.1,0.19,4.0,90.0,0.0
A-2000656,Bronx,NY,2019-08-02 11:47:22,2,40.88599,-73.827904,Mostly Cloudy,77.0,0.0,10.0,62.0,0.0
A-1921398,Iowa,LA,2019-08-19 14:45:54,3,30.248888,-92.986725,Light Rain,82.0,0.0,7.0,84.0,0.0
A-7424172,Salt Lake City,UT,2019-03-07 20:07:00,2,40.74162000000001,-111.74092,Mostly Cloudy,45.0,,10.0,74.0,0.444
A-1924185,Los Gatos,CA,2019-08-20 07:30:58,2,37.165668,-122.015938,Cloudy,63.0,0.0,10.0,87.0,0.0
A-1915835,Baldwin Park,CA,2019-09-16 03:10:00,3,34.066479,-117.990891,Haze,68.0,0.0,6.0,81.0,0.0
A-1991710,Stockbridge,GA,2019-07-28 16:47:49,3,33.55402,-84.26904300000002,Mostly Cloudy,88.0,0.0,10.0,39.0,0.0
A-7463661,Berkeley,CA,2019-01-15 16:00:46,3,37.86391,-122.30307,Light Rain,53.1,0.04,10.0,93.0,0.763
A-1878439,Sterling,VA,2019-09-25 08:17:25,2,38.97715,-77.411438,Mostly Cloudy,54.0,0.0,10.0,83.0,0.0
A-2288930,Englewood,CO,2019-02-15 08:30:48,2,39.588181,-104.848152,Partly Cloudy,34.0,,10.0,73.0,0.0
A-2250157,Omaha,NE,2019-02-28 13:30:25,3,41.22361400000001,-96.003929,Clear,20.7,,10.0,50.0,0.0
A-7438609,Englewood,CO,2019-02-01 20:59:34,2,39.57105,-104.8733,Clear,33.1,,10.0,56.0,0.487
A-7421617,Santa Cruz,CA,2019-09-16 12:01:00,2,36.984297,-122.02979,,,,,,0.0
A-2046327,Buffalo,NY,2019-06-12 12:35:19,2,42.932606,-78.766144,Fair,71.0,0.0,10.0,32.0,0.0
A-1717563,The Dalles,OR,2019-12-15 17:20:06,2,45.676147,-121.278908,Partly Cloudy,42.0,0.0,10.0,62.0,0.0
A-2066467,Lawndale,CA,2019-06-21 21:02:07,3,33.890941999999995,-118.361328,Cloudy,66.0,0.0,10.0,73.0,0.0
A-1902195,Norwalk,CA,2019-09-09 05:58:45,3,33.924892,-118.104172,Fair,67.0,0.0,10.0,73.0,0.0
A-7773810,Fayetteville,GA,2019-08-15 13:46:15,4,33.526402000000004,-84.447061,Fair,95.0,0.0,10.0,37.0,0.29
A-1839032,Lewisville,TX,2019-11-22 08:19:31,3,33.072598,-97.019997,Light Rain,45.0,0.01,10.0,90.0,0.0
A-1735828,Houston,TX,2019-12-24 19:39:03,2,29.727628999999997,-95.55751,Mostly Cloudy,58.0,0.0,10.0,78.0,0.0
A-7422811,Fort Worth,TX,2019-03-05 06:36:43,2,32.83948,-97.32144,,,,,,0.738
A-1898248,Los Angeles,CA,2019-09-06 02:46:15,2,34.031425,-118.174034,Fair,74.0,0.0,10.0,59.0,0.0
A-1730162,Salt Lake City,UT,2019-12-20 09:29:16,2,40.718895,-111.870743,Mostly Cloudy,36.0,0.0,10.0,55.0,0.0
A-1824699,Portland,OR,2019-11-15 06:58:24,2,45.558208,-122.547462,Cloudy,47.0,0.02,10.0,97.0,0.0
A-1886054,Hughson,CA,2019-09-28 23:19:24,2,37.609394,-120.847427,Fair,60.0,0.0,10.0,51.0,0.0
A-1725548,Riverside,CA,2019-12-18 01:10:59,2,33.847069,-117.356323,Partly Cloudy,46.0,0.0,10.0,29.0,0.0
A-7470704,Sterling,VA,2019-01-28 10:32:17,3,39.023523,-77.38828199999998,Mostly Cloudy,30.9,,10.0,40.0,0.309
A-7353561,Forest Lake,MN,2019-10-24 14:40:00,2,45.27117,-92.98325,Mostly Cloudy,43.0,0.0,10.0,49.0,0.022
A-1989314,Nokomis,FL,2019-07-26 13:41:03,2,27.182659,-82.44479399999999,Fair,86.0,0.0,10.0,70.0,0.0
A-2136437,San Antonio,TX,2019-05-01 10:24:34,2,29.48605,-98.594276,Cloudy,76.0,0.0,10.0,76.0,0.0
A-2171940,Spencerport,NY,2019-04-17 05:16:12,2,43.218418,-77.792511,Fog,33.0,0.0,0.5,89.0,0.0
A-2312495,New Haven,CT,2019-01-02 17:02:49,3,41.325409,-72.881416,Mostly Cloudy,35.1,,10.0,44.0,0.0
A-2316045,Leeds,AL,2019-01-03 18:43:50,2,33.496829999999996,-86.607147,Light Rain,53.1,0.01,9.0,93.0,0.0
A-7418159,Acton,CA,2019-09-13 00:29:00,2,34.492166999999995,-118.28368799999998,Fair,66.0,0.0,10.0,29.0,0.0
A-1729599,East Peoria,IL,2019-12-20 10:49:20,2,40.674858,-89.538841,Fair,33.0,0.0,7.0,78.0,0.0
A-7713491,Lake Zurich,IL,2019-04-23 17:15:25,3,42.15364,-87.99958000000002,Fair,60.0,0.0,10.0,51.0,0.0
A-7411287,Castaic,CA,2019-09-07 10:52:00,2,34.486721,-118.61683,Fair,88.0,0.0,10.0,37.0,0.0
A-2361324,San Jose,CA,2019-01-25 08:21:51,2,37.317284,-121.974243,Partly Cloudy,43.0,,10.0,82.0,0.0
A-2363640,Richmond,VA,2019-01-28 16:38:28,2,37.54081,-77.445061,Partly Cloudy,41.0,,10.0,41.0,0.0
A-7346028,Fremont,CA,2019-10-18 18:54:00,2,37.511362,-121.937633,,,0.0,,,0.0
A-2128728,Huntersville,NC,2019-05-29 13:26:32,2,35.407261,-80.862663,Partly Cloudy,93.0,0.0,10.0,34.0,0.0
A-7401410,San Jose,CA,2019-09-27 23:39:00,2,37.353975,-121.837817,Partly Cloudy,61.0,,10.0,72.0,0.0
A-2304810,Richmond,VA,2019-02-25 18:15:16,2,37.57972,-77.49118,Clear,52.0,,10.0,17.0,0.0
A-1794543,Lehi,UT,2019-11-02 19:17:00,3,40.43196500000001,-111.891289,Partly Cloudy,38.0,0.0,10.0,44.0,0.0
A-1896212,Far Rockaway,NY,2019-09-06 11:59:35,2,40.606022,-73.758781,Cloudy,66.0,0.0,10.0,73.0,0.0
A-2101487,Baton Rouge,LA,2019-05-14 12:04:16,2,30.468679,-91.155411,Fair,81.0,0.0,10.0,41.0,0.0
A-1889715,Fort Lauderdale,FL,2019-09-03 11:43:27,3,26.086777,-80.364281,Mostly Cloudy,86.0,0.0,10.0,70.0,0.0
A-7465491,Matfield Green,KS,2019-01-18 18:12:08,2,38.181644,-96.461169,Rain,37.9,0.09,3.0,100.0,0.86
A-2005339,Milwaukee,WI,2019-08-05 16:29:31,3,43.00346,-88.038818,Partly Cloudy,84.0,0.0,10.0,45.0,0.8799999952316284
A-7356958,Sonoma,CA,2019-10-26 19:43:00,2,38.140937,-122.464791,Cloudy,57.0,0.0,10.0,77.0,0.0
A-7709309,Berkeley,IL,2019-04-15 08:26:41,3,41.88681,-87.92041,Fair,38.0,0.0,10.0,65.0,0.391
A-7736386,Phoenix,AZ,2019-06-10 20:27:18,2,33.66892,-112.07623,,,0.0,,,0.774
A-7306717,Mira Loma,CA,2019-12-09 08:51:30,2,34.02239,-117.55207,Fog,51.0,0.0,1.0,92.0,0.019
A-7314645,Martinez,CA,2019-12-14 16:42:00,2,37.992411,-122.125089,Partly Cloudy,55.0,0.0,10.0,57.0,0.0
A-7308091,Oakland,CA,2019-12-10 19:46:00,2,37.814413,-122.250863,Light Rain,54.0,0.06,7.0,90.0,0.0
A-2118374,San Jose,CA,2019-05-22 04:55:00,2,37.238194,-121.762077,Partly Cloudy,54.0,,10.0,88.0,0.0
A-2042651,Atlanta,GA,2019-06-10 07:58:25,3,33.920215999999996,-84.301926,Cloudy,72.0,0.0,8.0,93.0,0.0
A-2166672,Muskegon,MI,2019-04-14 13:49:09,2,43.204201,-86.204948,Snow,33.0,0.11,0.25,85.0,0.0
A-2080319,Flint,MI,2019-05-31 10:43:52,3,42.980209,-83.727921,Fair,68.0,0.0,10.0,52.0,1.3300000429153442
A-7742429,West Valley City,UT,2019-06-24 15:38:12,4,40.72391,-111.98624,Partly Cloudy,82.0,0.0,10.0,25.0,0.071
A-1984313,Bozrah,CT,2019-07-24 13:49:55,2,41.561371,-72.162186,Partly Cloudy,81.0,0.0,10.0,47.0,0.0
A-7323176,Fremont,CA,2019-12-20 18:35:00,2,37.509814,-121.970296,Cloudy,50.0,,10.0,94.0,0.0
A-7342245,San Juan Bautista,CA,2019-10-15 18:50:00,2,36.8825,-121.561389,,64.0,0.0,10.0,56.0,0.0
A-2086434,Brentwood,TN,2019-05-06 11:28:13,2,36.037418,-86.785851,Fair,75.0,0.0,10.0,41.0,0.0
A-2077470,Jacksonville,FL,2019-06-28 12:52:06,2,30.2498,-81.534531,Mostly Cloudy,88.0,0.0,10.0,51.0,0.3899999856948853
A-7300629,Milton,WA,2019-12-05 05:44:22,2,47.25526,-122.33155,Cloudy,45.0,0.0,10.0,100.0,0.11
A-1969379,Bronx,NY,2019-07-16 05:36:49,3,40.844788,-73.92546800000002,Mostly Cloudy,73.0,0.0,10.0,61.0,0.0
A-1911105,Madison,WI,2019-09-13 13:27:44,2,43.106491,-89.316788,Mostly Cloudy,64.0,0.0,10.0,65.0,0.0
A-7343477,Corona,CA,2019-10-16 13:50:00,2,33.86123,-117.53734,Fair,91.0,0.0,10.0,20.0,0.0
A-1998714,Charlotte,NC,2019-08-01 05:11:53,2,35.25457,-80.829002,Partly Cloudy,73.0,0.0,10.0,76.0,0.0
A-2345386,Irmo,SC,2019-01-18 18:36:41,2,34.110298,-81.191467,Overcast,46.4,,10.0,93.0,0.0
A-7398736,Dallas,TX,2019-09-26 23:32:57,3,32.92286,-96.84411,Fair,84.0,0.0,10.0,57.0,0.584
A-7378155,Fairfield,CA,2019-11-11 17:23:00,2,38.260645,-122.060625,Cloudy,73.0,0.0,10.0,35.0,0.0
A-1971693,West Hartford,CT,2019-07-17 07:32:25,2,41.749596,-72.715508,Cloudy,77.0,0.0,10.0,82.0,0.0
A-2346596,San Diego,CA,2019-01-18 10:13:37,3,32.585449,-117.08696,Scattered Clouds,62.1,,7.0,78.0,0.6100000143051147
A-2324882,Memphis,TN,2019-01-08 16:27:22,3,35.07278400000001,-90.00846899999998,Scattered Clouds,57.9,,10.0,37.0,0.0
A-1896718,Miami,FL,2019-09-06 06:20:07,2,25.748446,-80.319801,Mostly Cloudy,81.0,0.0,10.0,82.0,0.0
A-2093150,Tulsa,OK,2019-05-09 10:42:26,2,36.161251,-96.019882,Cloudy,54.0,0.0,10.0,75.0,0.0
A-2297762,Seattle,WA,2019-02-20 08:40:17,3,47.590126,-122.275139,Overcast,39.0,,10.0,82.0,0.0
A-2201527,Columbia,SC,2019-03-05 12:43:12,2,34.040226000000004,-81.09485600000002,Overcast,41.0,,10.0,76.0,0.0
A-7298271,Chandler,MN,2019-12-04 08:38:00,2,43.90675,-95.94375,Fair,30.0,0.0,5.0,80.0,0.0
A-1825681,Incline Village,NV,2019-11-16 09:40:26,2,39.249691,-119.952721,Fair,39.0,0.0,10.0,52.0,0.0
A-2006071,Portland,OR,2019-08-05 18:30:39,2,45.519348,-122.658699,Fair,85.0,0.0,10.0,43.0,0.0
A-1710571,La Puente,CA,2019-12-11 16:12:02,3,34.05088,-118.006348,Partly Cloudy,67.0,0.0,9.0,52.0,0.0
A-7429610,Bay City,MI,2019-03-19 18:57:11,4,43.579854,-83.90090699999998,Clear,45.0,,10.0,48.0,0.155
A-2062781,Jacksonville,FL,2019-06-20 06:24:11,3,30.390340999999996,-81.559372,Cloudy,79.0,0.0,10.0,90.0,0.0
A-2127439,Nashville,TN,2019-05-28 08:36:47,3,36.08589600000001,-86.699974,Fair,82.0,0.0,10.0,60.0,0.0
A-7763573,Portland,OR,2019-07-24 16:55:37,2,45.54002,-122.67097,Fair,81.0,0.0,10.0,31.0,0.353
A-2096499,Schenectady,NY,2019-05-11 14:44:15,2,42.815079,-74.025063,Partly Cloudy,59.0,0.0,15.0,48.0,0.0
A-1842384,Travelers Rest,SC,2019-11-25 12:38:34,2,35.130089,-82.463089,Fair,58.0,0.0,10.0,44.0,0.0
A-1862306,Dallas,TX,2019-10-03 08:50:54,2,32.995098,-96.86647,Fair,79.0,0.0,13.0,69.0,0.0
A-2137614,Wantagh,NY,2019-05-02 07:34:02,2,40.688721,-73.50919300000002,Cloudy,52.0,0.0,8.0,93.0,0.0
A-2299707,Zachary,LA,2019-02-21 09:33:49,2,30.60005,-91.047791,Overcast,57.9,,2.0,100.0,0.0
A-2325678,Boston,MA,2019-01-09 06:11:15,2,42.361362,-71.07270799999998,Light Rain,37.0,0.03,2.0,93.0,0.0
A-1987768,Dallas,TX,2019-07-25 07:53:26,2,32.975497999999995,-96.823189,Fair,73.0,0.0,10.0,61.0,0.0
A-2073918,Baton Rouge,LA,2019-06-26 18:26:25,2,30.473017,-91.167213,Fair,87.0,0.0,10.0,69.0,0.0
A-2313527,Oklahoma City,OK,2019-01-02 18:07:10,3,35.45630999999999,-97.51181,Light Freezing Rain,28.2,0.0,9.0,81.0,0.0
A-1863226,Rochester,NY,2019-10-04 21:18:19,2,43.21151,-77.57079300000002,Mostly Cloudy,45.0,0.0,10.0,86.0,0.0
A-7312658,Stockton,UT,2019-12-13 05:35:00,2,40.25261,-112.22071,Light Rain,38.0,0.0,10.0,89.0,0.0
A-2079783,Hardeeville,SC,2019-06-30 09:46:25,2,32.21711,-81.028374,Mostly Cloudy,82.0,0.0,10.0,71.0,0.0
A-7342384,Kingsville,MD,2019-10-16 17:48:37,2,39.46183,-76.41299000000002,Partly Cloudy,59.0,0.0,10.0,94.0,0.0
A-7464418,National City,CA,2019-01-16 06:38:56,2,32.670627,-117.081618,Light Rain,59.0,0.0,10.0,72.0,0.084
A-1852272,San Diego,CA,2019-11-28 10:40:13,3,32.848068,-117.235336,Heavy Rain,52.0,0.04,1.0,83.0,0.6700000166893005
A-7438893,Anaheim,CA,2019-02-01 15:12:52,2,33.85373,-117.91094,Mostly Cloudy,63.0,,10.0,60.0,0.402
A-2201372,Brooksville,FL,2019-03-05 08:37:33,2,28.523319,-82.27822900000002,Light Rain,51.1,0.02,9.0,86.0,0.0
A-2008775,Mount Laurel,NJ,2019-08-07 18:47:06,3,39.967312,-74.91128499999998,Heavy T-Storm,70.0,1.09,1.0,93.0,0.0
A-2154081,Raleigh,NC,2019-04-08 13:58:53,2,35.83512899999999,-78.58255799999998,Partly Cloudy,78.0,0.0,9.0,66.0,0.0
A-2055130,Corydon,IN,2019-06-17 14:34:45,3,38.264511,-86.001671,Cloudy,81.0,0.0,10.0,72.0,0.0
A-2042740,Greenville,SC,2019-06-10 15:24:46,2,34.819679,-82.276329,Mostly Cloudy,79.0,0.0,10.0,77.0,0.0
A-1992251,Astoria,NY,2019-07-29 08:03:14,2,40.767864,-73.904892,Partly Cloudy,81.0,0.0,10.0,58.0,0.0
A-2211533,Saint Paul,MN,2019-03-10 18:02:34,3,45.010414,-93.089798,Clear,28.9,,10.0,54.0,0.0
A-7313066,Santa Rosa,CA,2019-12-13 15:27:00,2,38.4641,-122.7268,Light Rain,55.0,0.01,9.0,89.0,0.004
A-1806255,Medford,MA,2019-11-08 05:22:23,3,42.45013,-71.10436999999997,Mostly Cloudy / Windy,36.0,0.0,10.0,55.0,0.0
A-2094690,Charlotte,NC,2019-05-10 21:27:22,2,35.169609,-80.90471600000002,Partly Cloudy,72.0,0.0,10.0,84.0,0.0
A-2183734,Mustang,OK,2019-04-23 16:00:42,2,35.391731,-97.813019,Cloudy,58.0,0.0,10.0,93.0,0.0
A-1796500,Columbia,SC,2019-11-04 16:12:33,2,34.116215000000004,-80.885178,Fair,67.0,0.0,10.0,47.0,0.0
A-1838861,Milwaukee,WI,2019-11-22 19:50:09,3,43.031319,-87.987602,Fair,27.0,0.0,10.0,74.0,0.3799999952316284
A-1904792,Flint,MI,2019-09-11 02:22:29,2,43.010273,-83.679802,Fair,73.0,0.0,10.0,84.0,0.0
A-1793013,Dallas,TX,2019-11-01 06:53:16,2,32.732864,-96.919884,Fair,33.0,0.0,10.0,66.0,0.0
A-2099761,Dublin,CA,2019-05-13 06:45:36,3,37.701859000000006,-121.901474,Fair,50.0,0.0,7.0,89.0,0.0
A-1972021,Draper,VA,2019-07-17 17:33:02,3,36.999035,-80.775932,Cloudy,75.0,0.0,10.0,93.0,0.0
A-2019991,Burgaw,NC,2019-08-13 07:54:34,2,34.506081,-77.90329,Fair,76.0,0.0,10.0,94.0,0.0
A-2359126,Detroit,MI,2019-01-25 16:10:14,3,42.406017,-82.95719100000002,Mostly Cloudy,14.0,,10.0,54.0,0.0
A-1921036,Oklahoma City,OK,2019-08-19 08:06:20,3,35.51155100000001,-97.575607,Fair,81.0,0.0,10.0,72.0,0.0
A-2368221,Allston,MA,2019-01-30 06:46:33,2,42.35825,-71.117767,Partly Cloudy,28.0,,10.0,78.0,0.8500000238418579
A-2102406,Grand Blanc,MI,2019-05-15 15:34:30,2,42.938919,-83.66229200000002,Mostly Cloudy,67.0,0.0,10.0,54.0,0.0
A-1952243,Silver Spring,MD,2019-07-05 09:32:34,2,39.043182,-76.991989,Cloudy,,0.0,7.0,,0.0
A-2159711,Des Moines,IA,2019-04-10 16:59:03,2,41.627827,-93.575172,Cloudy / Windy,41.0,0.0,10.0,87.0,0.0
A-7366985,Redlands,CA,2019-11-02 18:02:00,2,34.016690000000004,-117.096161,Mostly Cloudy,81.0,0.0,10.0,6.0,0.0
A-1740706,Elloree,SC,2019-10-08 16:14:31,2,33.557739,-80.576599,Mostly Cloudy,83.0,0.0,10.0,49.0,0.0
A-1933783,Nashville,TN,2019-08-26 07:52:50,3,36.195492,-86.776108,Light Rain,70.0,0.02,6.0,90.0,0.0
A-7413343,Hollister,CA,2019-09-09 21:17:00,2,36.936162,-121.486405,Fair,63.0,0.0,8.0,82.0,0.0
A-7471849,Bay Point,CA,2019-01-29 09:09:03,2,38.00871,-121.94098,Clear,55.0,,10.0,77.0,0.0
A-2070751,Charlotte,NC,2019-06-25 17:54:45,2,35.266586,-80.881927,Mostly Cloudy,83.0,0.0,10.0,60.0,0.0
A-2171245,Shreveport,LA,2019-04-16 07:54:54,3,32.554382000000004,-93.781326,Fair,59.0,0.0,10.0,87.0,0.0
A-2140119,York,PA,2019-05-03 06:08:07,3,39.973362,-76.694191,Cloudy,62.0,0.0,3.0,96.0,0.0
A-7301040,Murrieta,CA,2019-12-05 04:52:00,2,33.538074,-117.173575,Cloudy,46.0,0.0,0.0,100.0,0.0
A-2147805,Chattanooga,TN,2019-04-04 06:54:48,3,35.003547999999995,-85.212395,Fair,46.0,0.0,10.0,79.0,0.0
A-7398529,San Marcos,CA,2019-09-25 18:23:00,2,33.138548,-117.141082,Fair,71.0,0.0,10.0,78.0,0.0
A-1945690,Dallas,TX,2019-07-01 12:38:37,2,32.643566,-96.84417,Mostly Cloudy,85.0,0.0,10.0,59.0,0.0
A-7433217,Pendleton,OR,2019-02-08 15:59:25,2,45.589373,-118.554621,Light Snow,21.0,0.0,1.2,88.0,1.6
A-2126537,Norfolk,VA,2019-05-28 13:01:26,3,36.903152,-76.24009699999998,Partly Cloudy,89.0,0.0,10.0,52.0,0.0
A-7290810,Mora,MN,2019-12-27 17:48:00,2,45.88003,-93.26612,Fair,21.0,0.0,10.0,93.0,0.0
A-7398777,Spanish Fork,UT,2019-09-26 18:29:00,2,40.125431,-111.65469,Partly Cloudy,78.0,0.0,10.0,28.0,0.026
A-1978680,Mobile,AL,2019-07-20 13:03:30,3,30.63382,-88.118523,Cloudy,81.0,0.05,10.0,85.0,0.0
A-7394995,Patterson,CA,2019-09-23 05:14:00,2,37.583372,-121.32292,Fair,64.0,0.0,10.0,72.0,0.0
A-2185751,Minneapolis,MN,2019-04-24 20:36:42,3,45.068832,-93.277237,Mostly Cloudy,61.0,0.0,10.0,78.0,1.0800000429153442
A-2315256,Greenwood,SC,2019-01-03 11:40:37,2,34.22953,-82.05629,Light Rain,53.1,0.01,5.0,100.0,0.0
A-7708405,Naselle,WA,2019-04-12 13:00:22,2,46.23506,-123.87196000000002,Cloudy,54.0,0.0,10.0,72.0,2.764
A-1967835,Tucker,GA,2019-07-15 12:50:15,3,33.846012,-84.247139,Fair,90.0,0.0,10.0,39.0,0.0
A-2170247,Richmond,VA,2019-04-16 16:26:21,2,37.54789,-77.462128,Mostly Cloudy,69.0,0.0,10.0,23.0,0.0
A-2184845,Fort Lee,NJ,2019-04-24 20:26:23,3,40.85347700000001,-73.96159399999998,Fair,65.0,0.0,10.0,36.0,0.0
A-7453808,Cascadia,OR,2019-02-25 17:29:07,2,44.396186,-122.48479,Overcast,35.1,,10.0,82.0,0.932
A-2102312,Boron,CA,2019-05-14 17:05:44,2,34.992352000000004,-117.541573,Fair,84.0,0.0,8.0,15.0,4.320000171661377
A-2256543,Phoenix,AZ,2019-01-31 16:13:33,2,33.509021999999995,-112.220482,Scattered Clouds,71.6,,10.0,27.0,0.0
A-1775302,Lithia Springs,GA,2019-10-24 16:58:42,3,33.768723,-84.65194699999998,Fair,69.0,0.0,10.0,38.0,0.0
A-2121267,Wexford,PA,2019-05-24 08:09:50,2,40.62060200000001,-80.054802,Fair,59.0,0.0,10.0,78.0,0.3000000119209289
A-7321699,Bakersfield,CA,2019-12-19 10:50:00,2,35.419525,-119.039179,Fair,54.0,0.0,10.0,53.0,0.0
A-1927202,Johnson City,TN,2019-08-22 09:52:18,2,36.390648,-82.41107199999998,Fair,81.0,0.0,10.0,69.0,0.0
A-2058160,Augusta,GA,2019-06-18 15:02:52,2,33.512081,-82.043068,Partly Cloudy,89.0,0.0,10.0,48.0,0.0
A-7422569,Brighton,MI,2019-03-05 11:52:30,3,42.52276,-83.71427,Light Snow,16.5,,3.0,63.0,1.499
A-2329307,Kansas City,MO,2019-01-10 20:04:07,2,39.243431,-94.507423,Overcast,39.0,,10.0,50.0,0.0
A-2136500,Austin,TX,2019-05-01 08:55:21,2,30.318740999999996,-97.730881,Cloudy,75.0,0.0,7.0,84.0,0.0
A-7287479,Miami,FL,2019-12-24 09:20:48,2,25.83548,-80.20618,Fair,64.0,0.0,10.0,75.0,0.444
A-7424069,Denver,CO,2019-03-07 05:25:03,3,39.7873,-104.98933999999998,Light Freezing Fog,26.6,,0.2,100.0,0.233
A-1970621,Baton Rouge,LA,2019-07-16 10:59:22,2,30.559254,-91.173645,Mostly Cloudy,87.0,0.0,10.0,69.0,0.0
A-2114587,,FL,2019-05-21 08:01:30,2,27.388344,-82.478729,Fair,76.0,0.0,10.0,79.0,0.0
A-7771479,Macon,GA,2019-08-10 11:07:46,4,32.78467,-83.66648,Fair,89.0,0.0,10.0,67.0,0.0
A-1844132,Bothell,WA,2019-11-25 20:12:19,2,47.758297,-122.164795,Mostly Cloudy,38.0,0.03,9.0,89.0,0.0
A-1861443,Miami,FL,2019-10-03 15:46:29,2,25.66642,-80.323738,Partly Cloudy,86.0,0.0,10.0,67.0,0.0
A-2046484,Rochester,NY,2019-06-12 21:40:06,2,43.165939,-77.59082,Mostly Cloudy,70.0,0.0,10.0,44.0,0.0
A-2114996,Lindstrom,MN,2019-05-21 04:07:21,2,45.390301,-92.841568,Fair,45.0,0.0,10.0,74.0,0.1400000005960464
A-1771319,Olivehurst,CA,2019-10-22 08:16:08,2,39.087971,-121.549522,Fair,50.0,0.0,10.0,74.0,0.0
A-1952798,Vance,SC,2019-07-05 08:57:46,2,33.430389,-80.40358,Fog,73.0,0.0,1.0,100.0,0.0
A-2158293,Alhambra,CA,2019-04-09 15:34:21,3,34.071659000000004,-118.108231,Fair,75.0,0.0,10.0,43.0,0.0
A-1910775,Anderson,SC,2019-09-13 15:22:33,2,34.4795,-82.648354,Fair,94.0,0.0,10.0,40.0,0.0
A-1854512,Lafayette,LA,2019-09-30 08:38:07,2,30.156658,-92.048393,Partly Cloudy,76.0,0.0,6.0,94.0,0.0
A-7368646,Vallejo,CA,2019-11-04 17:43:00,2,38.09511,-122.22975,Fair,59.0,0.0,10.0,53.0,0.0
A-7356815,Pine Grove,CA,2019-10-26 09:43:00,2,38.413055,-120.666576,Fair,70.0,0.0,10.0,20.0,0.0
A-2183268,Greenville,SC,2019-04-23 16:10:44,3,34.886742,-82.391403,Fair,84.0,0.0,10.0,31.0,0.0
A-7730138,Largo,FL,2019-05-30 20:12:49,2,27.88015,-82.794891,Fair,83.0,0.0,10.0,65.0,0.0
A-1834837,Cleveland,OH,2019-11-21 18:40:02,3,41.479881,-81.662064,Light Rain,51.0,0.0,9.0,74.0,0.0
A-1845539,Spartanburg,SC,2019-11-26 08:28:12,2,34.956478000000004,-82.00993299999998,Fair,37.0,0.0,10.0,93.0,0.0
A-7291864,Flushing,NY,2019-12-29 00:43:18,2,40.76795,-73.88444,Partly Cloudy,44.0,0.0,10.0,58.0,0.355
A-2048312,Pleasant Grove,CA,2019-06-12 10:43:50,2,38.744228,-121.540199,Fair,88.0,0.0,10.0,38.0,0.0
A-2293007,Cardiff By the Sea,CA,2019-02-18 10:16:06,3,33.025311,-117.274155,Clear,54.0,,10.0,35.0,0.0
A-7744066,Seattle,WA,2019-06-27 06:54:20,2,47.73397,-122.31277,Cloudy,58.0,0.0,10.0,78.0,0.0
A-2139754,Sherman Oaks,CA,2019-05-02 21:20:25,2,34.155646999999995,-118.445305,Fair,61.0,0.0,10.0,75.0,0.0
A-2128663,Charlotte,NC,2019-05-29 06:15:29,2,35.304501,-80.88221,Fair,71.0,0.0,9.0,68.0,0.0
A-2135911,Orlando,FL,2019-05-01 07:01:03,3,28.466486,-81.46354699999998,Fair,71.0,0.0,10.0,90.0,0.0
A-2199239,Columbia,SC,2019-03-04 09:42:46,2,34.113152,-80.947716,Overcast,48.9,,10.0,80.0,0.0
A-1871433,Moss Beach,CA,2019-09-20 06:20:33,2,37.527489,-122.51342,Cloudy,48.0,0.0,10.0,93.0,0.0
A-1739196,Los Angeles,CA,2019-10-07 00:30:16,3,33.997566,-118.176834,Fair,65.0,0.0,9.0,81.0,0.0
A-7460103,Minneapolis,MN,2019-01-09 08:41:55,2,44.86223,-93.2298,Clear,7.0,,10.0,67.0,0.652
A-2175492,Baton Rouge,LA,2019-04-18 15:44:19,2,30.412149,-91.080383,T-Storm,64.0,1.04,2.0,96.0,0.0
A-2198282,Norwalk,CA,2019-03-03 06:22:03,3,33.902077,-118.105087,Overcast,57.0,,10.0,89.0,0.0
A-2191635,Camp Pendleton,CA,2019-04-26 08:57:17,3,33.299335,-117.465134,Cloudy,58.0,0.0,3.0,90.0,14.850000381469728
A-2103449,Omaha,NE,2019-05-15 13:34:34,2,41.29224,-95.967346,Partly Cloudy,82.0,0.0,10.0,42.0,0.0
A-7407362,Pacifica,CA,2019-09-04 12:00:00,2,37.582413,-122.50978899999998,Mostly Cloudy,71.0,0.0,10.0,59.0,0.0
A-7439771,Oak Brook,IL,2019-02-04 14:28:31,2,41.83244000000001,-87.947456,Light Drizzle,48.2,0.0,2.5,100.0,0.0
A-2032410,Duluth,GA,2019-06-04 07:58:41,2,33.952090999999996,-84.129997,Fair,68.0,0.0,10.0,55.0,0.0
A-1847402,Washington,DC,2019-11-27 20:38:30,2,38.87648,-77.00348699999998,Fair,55.0,0.0,10.0,83.0,0.0
A-7308457,Perris,CA,2019-12-10 15:06:00,2,33.858204,-117.331329,Mostly Cloudy,64.0,0.0,10.0,36.0,0.0
A-1920542,Miami,FL,2019-08-19 16:10:57,2,25.685343,-80.416573,Fair,89.0,0.0,10.0,63.0,0.0
A-1836767,Scottsdale,AZ,2019-11-21 06:14:51,2,33.62468,-111.939064,Light Rain,53.0,0.0,10.0,89.0,0.0
A-1784202,Henrico,VA,2019-10-29 18:00:23,2,37.653801,-77.63961,Cloudy,65.0,0.0,10.0,78.0,0.0
A-1928800,El Paso,TX,2019-08-22 14:42:28,2,31.735929,-106.28833,Partly Cloudy,91.0,,10.0,28.0,0.0
A-1723637,Charlotte,NC,2019-12-18 05:59:31,2,35.10078,-80.992737,Fair,34.0,0.0,10.0,59.0,0.0
A-7380901,Citrus Heights,CA,2019-11-13 13:57:00,2,38.707434,-121.313448,Mostly Cloudy,73.0,,10.0,31.0,0.0
A-7360505,Tracy,CA,2019-10-29 04:11:00,2,37.597512,-121.342493,Fair,39.0,0.0,10.0,60.0,0.0
A-7765638,Gervais,OR,2019-07-29 06:35:10,2,45.119242,-122.912818,Fair,57.0,0.0,10.0,83.0,1.554
A-7366068,Clearwater,MN,2019-11-02 02:34:00,2,45.41752,-94.0438,Cloudy,31.0,0.0,10.0,92.0,0.063
A-7769723,Eugene,OR,2019-08-06 11:50:28,2,44.10235,-123.17136,Cloudy,68.0,0.0,10.0,68.0,0.042
A-2210247,Los Angeles,CA,2019-03-08 05:06:59,3,34.03688,-118.291573,Mostly Cloudy,48.9,,10.0,77.0,0.0
A-1907202,Culver City,CA,2019-09-11 08:58:12,2,34.002914000000004,-118.411278,Mostly Cloudy,69.0,0.0,10.0,75.0,0.0
A-7717420,Kansas City,MO,2019-05-03 18:48:42,3,39.05358,-94.47833,Fair,61.0,0.0,10.0,62.0,0.415
A-2266737,Southfield,MI,2019-02-06 09:26:15,3,42.489815,-83.285011,Overcast,32.0,,2.5,93.0,0.0
A-7320402,Halethorpe,MD,2019-12-19 06:58:12,4,39.25009,-76.68332,Fair,20.0,0.0,10.0,48.0,0.1369999999999999
A-1960048,Summerville,SC,2019-07-10 10:10:35,2,33.046879,-80.10826899999998,,,,,,0.0
A-1706727,Austin,TX,2019-12-10 13:51:48,2,30.300406,-97.712837,Cloudy,46.0,0.0,10.0,86.0,0.0
A-2271921,Whittier,CA,2019-02-07 08:35:00,2,33.936863,-118.041748,Clear,51.1,,10.0,50.0,0.0
A-2028901,Sebring,FL,2019-06-02 19:45:23,2,27.431471,-81.37683100000002,Partly Cloudy,82.0,0.0,10.0,74.0,0.0
A-1943600,Houston,TX,2019-08-30 06:54:24,2,29.83186,-95.569969,Mostly Cloudy,79.0,0.0,10.0,88.0,0.0
A-1785633,Tucson,AZ,2019-10-29 06:50:47,2,32.16885,-110.943314,Fair,46.0,0.0,10.0,37.0,0.0
A-2206289,Apex,NC,2019-03-07 16:18:17,2,35.71521,-78.839577,Mostly Cloudy,48.9,,10.0,23.0,0.0
A-1843564,Dallas,TX,2019-11-25 07:00:00,2,32.871864,-96.770248,Fair,51.0,0.0,10.0,74.0,0.0
A-7456870,Beaver,UT,2019-01-03 21:38:00,2,38.487632,-112.61788,,6.1,,10.0,83.0,0.171
A-2190659,Austin,TX,2019-04-26 06:00:24,3,30.166967,-97.786423,Fair,64.0,0.0,10.0,75.0,0.0
A-1926290,Phoenix,AZ,2019-08-21 16:51:22,2,33.471149,-112.065102,Fair,113.0,0.0,10.0,5.0,0.0
A-7382346,Grants Pass,OR,2019-11-15 17:51:12,2,42.37198,-123.33489,Fog,46.0,0.0,0.25,93.0,0.0
A-2189313,Cranston,RI,2019-04-26 16:13:23,3,41.781845,-71.42351500000002,Light Rain,50.0,0.0,1.0,96.0,0.0
A-1839425,Tuscaloosa,AL,2019-11-22 07:06:06,2,33.16938,-87.503914,Fair,54.0,0.0,6.0,90.0,0.0
A-1712252,Austin,TX,2019-12-12 07:34:47,3,30.355559999999997,-97.74678,Partly Cloudy,37.0,0.0,10.0,89.0,0.0
A-1998768,Charlotte,NC,2019-08-01 14:57:02,2,35.27607000000001,-80.816742,Partly Cloudy,92.0,0.0,10.0,38.0,0.0
A-1816064,Bloomington,CA,2019-11-12 05:33:05,3,34.06773,-117.435066,Fair,51.0,0.0,9.0,66.0,1.190000057220459
A-7332798,Sacramento,CA,2019-10-08 14:27:00,2,38.595789,-121.382892,Mostly Cloudy,86.0,,10.0,19.0,0.0
A-7452861,Walterville,OR,2019-02-24 20:38:49,2,44.105644,-122.68184,Light Snow,33.1,0.06,3.0,89.0,0.287
A-7448258,Key West,FL,2019-02-16 18:58:27,4,24.593747,-81.664087,Clear,77.0,,10.0,71.0,0.322
A-1937014,Pawtucket,RI,2019-08-28 12:42:03,3,41.885681,-71.37870799999997,Cloudy,74.0,0.0,10.0,73.0,0.0
A-2210365,Acton,CA,2019-03-08 13:30:33,2,34.48946,-118.137405,Scattered Clouds,50.0,,10.0,46.0,0.0
A-7294363,Princeton,MN,2019-12-30 10:09:00,2,45.61154000000001,-93.60818,Light Snow,28.0,0.0,0.75,93.0,0.0
A-1957542,Richmond,VA,2019-07-09 08:09:03,2,37.50589,-77.54860699999998,Fair,71.0,0.0,10.0,81.0,0.0
A-2003253,Cedar City,UT,2019-08-03 06:15:55,2,37.628368,-113.311539,Fair,65.0,0.0,10.0,58.0,0.0
A-1700371,Hoopa,CA,2019-12-06 04:32:53,2,41.02441,-123.652458,Cloudy,62.0,0.0,10.0,46.0,0.0
A-2216717,Duluth,GA,2019-03-13 16:15:51,3,33.936657000000004,-84.15909599999998,Clear,66.0,,10.0,36.0,0.0
A-7372794,Chicago,IL,2019-11-07 18:31:22,3,41.92287,-87.67877,Fair,26.0,0.0,10.0,47.0,0.537
A-2175437,Oklahoma City,OK,2019-04-18 16:13:34,3,35.469891,-97.503372,Partly Cloudy / Windy,65.0,0.0,10.0,42.0,0.0
A-2227646,Norwalk,CA,2019-03-19 08:07:37,3,33.902077,-118.105087,Overcast,54.0,,1.5,90.0,0.0
A-7414354,Carson,CA,2019-09-10 14:55:00,2,33.831592,-118.287232,Partly Cloudy,77.0,,10.0,57.0,0.0
A-1717327,Independence,MO,2019-12-15 08:36:28,3,39.03886,-94.341225,Light Snow,24.0,0.0,0.75,84.0,0.0
A-7724688,Pompano Beach,FL,2019-05-18 03:04:32,3,26.28016,-80.12526,Fair,77.0,0.0,10.0,69.0,0.777
A-1805160,Austin,TX,2019-11-07 16:22:55,2,30.2029,-97.806877,Heavy Rain,50.0,0.04,1.0,86.0,0.0
A-1918078,Phoenix,AZ,2019-09-17 16:32:03,2,33.47937,-112.039017,Fair,97.0,0.0,10.0,26.0,0.0
A-1766531,Louisville,KY,2019-10-21 07:40:58,2,38.259418,-85.742188,Fair,60.0,0.0,10.0,83.0,0.9800000190734864
A-7366220,Waubun,MN,2019-11-02 17:47:00,2,47.17959000000001,-95.76326,Mostly Cloudy,32.0,0.0,10.0,80.0,0.23
A-2273479,Austin,TX,2019-02-08 12:41:17,3,30.200033,-97.762856,Overcast,35.1,0.02,9.0,54.0,0.0
A-7739416,Clanton,AL,2019-06-17 14:53:12,2,32.805095,-86.581248,Fair,90.0,0.0,10.0,43.0,2.79
A-7361697,Antioch,IL,2019-10-30 18:59:22,3,42.44813,-88.11003000000002,Cloudy,40.0,0.0,10.0,83.0,0.055
A-1784546,Conway,SC,2019-10-29 17:00:22,2,33.874081,-79.05019399999998,Partly Cloudy,70.0,0.0,5.0,94.0,0.0
A-2231508,Rogers,MN,2019-03-21 15:28:57,3,45.195251,-93.551399,Clear,46.9,,10.0,61.0,7.739999771118164
A-1885228,Dallas,TX,2019-09-28 20:23:31,2,32.887772,-96.770302,Fair,90.0,0.0,10.0,43.0,0.0
A-2207392,Houston,TX,2019-03-07 11:37:37,2,29.702022999999997,-95.374733,Overcast,66.2,,9.0,94.0,0.0
A-2311325,Los Angeles,CA,2019-02-27 05:36:51,3,34.018204,-118.176582,Scattered Clouds,51.1,,10.0,89.0,0.0
A-7426279,Dorchester,MA,2019-03-12 09:49:44,2,42.29676,-71.04647,Partly Cloudy,37.9,,10.0,48.0,0.207
A-2330463,Flint,MI,2019-01-11 04:42:29,2,43.0439,-83.69386300000002,Clear,16.0,,10.0,77.0,0.0
A-1940568,Saint Paul,MN,2019-08-29 07:42:42,2,44.915051,-93.14537,Mostly Cloudy,66.0,0.0,10.0,70.0,0.239999994635582
A-1783547,Valley Stream,NY,2019-10-29 06:33:05,2,40.682724,-73.687935,Cloudy,53.0,0.0,10.0,100.0,2.799999952316284
A-2293367,Bellmore,NY,2019-02-19 15:29:25,2,40.697693,-73.535667,Clear,33.1,,10.0,34.0,0.0
A-2029570,Ambler,PA,2019-06-03 06:47:12,2,40.159431,-75.214928,Fair,56.0,0.0,10.0,84.0,0.0
A-2173402,Birmingham,AL,2019-04-17 10:46:59,2,33.513378,-86.794304,Cloudy,72.0,0.0,10.0,46.0,0.0
A-1937930,Jacksonville,FL,2019-08-28 16:29:53,3,30.27022,-81.612808,Mostly Cloudy,92.0,0.0,10.0,50.0,2.7899999618530287
A-7428951,Ogden,UT,2019-03-17 21:48:00,2,41.20907800000001,-111.97924,Clear,41.0,,10.0,49.0,0.099
A-1812591,Englewood,CO,2019-11-11 05:51:48,2,39.555439,-104.870201,Light Snow,15.0,0.01,1.0,80.0,0.0
A-7326893,Baldwin Park,CA,2019-10-03 07:25:00,2,34.065158000000004,-118.000227,Fair,61.0,0.0,10.0,64.0,0.0
A-7350043,Glendora,CA,2019-10-21 14:37:30,2,34.11991,-117.83849,Fair,90.0,,10.0,14.0,0.0
A-7458865,Ogden,UT,2019-01-07 13:06:00,2,41.17618,-112.006261,Overcast,35.1,0.01,10.0,70.0,0.0
A-2311140,Lafayette,CA,2019-02-27 03:23:22,2,37.891834,-122.151749,Light Rain,55.4,0.02,7.0,82.0,0.0
A-1756202,Sacramento,CA,2019-10-15 08:36:01,2,38.68287700000001,-121.336594,Fair,54.0,,10.0,47.0,0.0
A-2079839,Elk River,MN,2019-06-30 14:23:54,2,45.303185,-93.554703,Fair,70.0,0.0,10.0,77.0,0.0
A-7381456,Montebello,CA,2019-11-13 16:08:30,2,34.035920000000004,-118.09293,Partly Cloudy,69.0,0.0,5.0,63.0,0.0
A-1947139,Miami,FL,2019-07-02 08:36:20,2,25.95215,-80.146828,Fair,86.0,0.0,10.0,72.0,0.0
A-1896416,Edgewood,KY,2019-09-06 07:50:31,2,39.010399,-84.580444,Fair,58.0,0.0,9.0,87.0,0.0
A-2187432,Charlotte,NC,2019-04-25 07:01:36,2,35.33586500000001,-80.913811,Mostly Cloudy,62.0,0.0,10.0,70.0,0.0
A-2299881,Nashville,TN,2019-02-21 08:31:30,2,36.16259,-86.793823,Scattered Clouds,48.0,,10.0,71.0,0.1500000059604644
A-1961010,San Mateo,CA,2019-07-10 08:12:11,2,37.584156,-122.328293,Cloudy,65.0,0.0,10.0,75.0,0.0
A-1836653,Houston,TX,2019-11-21 18:56:49,2,29.630460999999997,-95.170364,Mostly Cloudy,74.0,0.0,10.0,79.0,0.0
A-1980481,Greenville,SC,2019-07-22 12:46:14,2,34.789906,-82.48670200000002,Mostly Cloudy,90.0,0.0,10.0,54.0,0.0
A-7379300,Sacramento,CA,2019-11-12 16:18:00,2,38.47624,-121.42503,Partly Cloudy,74.0,0.0,9.0,34.0,0.008
A-7465948,Cleveland,OH,2019-01-19 14:40:38,2,41.55293,-81.59971999999998,Light Snow,28.0,0.01,0.8,85.0,1.873
A-7718739,Portland,OR,2019-05-06 13:20:17,2,45.469934,-122.68316000000002,Fair,73.0,0.0,10.0,37.0,0.052
A-7314076,New London,MN,2019-12-14 11:43:00,2,45.34031,-95.0914,Light Snow,2.0,0.0,10.0,81.0,0.0
A-7745954,Hurricane,UT,2019-06-01 13:51:00,2,37.12555,-113.205122,Mostly Cloudy,86.0,0.0,10.0,18.0,0.002
A-2227544,Mill Valley,CA,2019-03-19 21:28:40,2,37.886654,-122.516624,Mostly Cloudy,57.2,,10.0,67.0,0.0
A-2253776,Castro Valley,CA,2019-03-01 13:41:09,2,37.695549,-122.073929,Scattered Clouds,55.9,,10.0,62.0,0.0
A-2125488,Houston,TX,2019-05-27 05:38:07,2,29.695688,-95.376617,Mostly Cloudy,75.0,0.0,10.0,79.0,0.0
A-1942690,Columbia,SC,2019-08-30 11:38:16,2,34.083912,-80.939003,Fair,87.0,0.0,10.0,33.0,0.0
A-2170538,Columbia,SC,2019-04-16 15:21:40,2,34.074902,-81.062973,Fair,70.0,0.0,10.0,29.0,0.0
A-1996431,Arlington,VA,2019-07-31 11:51:05,2,38.909698,-77.136848,Cloudy,85.0,0.0,10.0,53.0,0.0
A-7460802,Waldo,AR,2019-01-10 16:07:49,4,33.324559,-93.300807,Clear,52.0,,10.0,35.0,0.348
A-7443643,Portland,OR,2019-02-09 08:37:18,2,45.57947,-122.67868,Overcast,30.9,,10.0,76.0,0.156
A-1829903,Holiday,FL,2019-11-19 06:55:11,2,28.204346,-82.739609,Mostly Cloudy,61.0,0.0,10.0,87.0,0.0
A-7347790,Phelan,CA,2019-10-19 15:42:00,2,34.316692,-117.479754,Fair,74.0,0.0,10.0,11.0,0.0
A-1792175,Lake Worth,FL,2019-11-01 13:56:06,3,26.62822,-80.067596,Mostly Cloudy,85.0,0.0,10.0,69.0,0.0
A-7764879,Echo,OR,2019-07-27 04:15:11,2,45.733175,-119.059445,Partly Cloudy,74.0,0.0,10.0,35.0,2.167
A-2229013,Newport,MN,2019-03-20 22:57:16,3,44.887817,-93.003342,Scattered Clouds,39.6,,10.0,67.0,3.4600000381469727
A-1817918,Darien,IL,2019-11-13 08:01:19,2,41.749531,-87.973763,Fair,15.0,0.0,10.0,68.0,0.0
A-2353924,Norfolk,VA,2019-01-23 07:32:42,2,36.877541,-76.192719,Overcast,37.0,,10.0,82.0,0.0
A-1701021,Tucson,AZ,2019-12-06 23:31:29,2,32.161590999999994,-110.984398,Mostly Cloudy,54.0,0.0,10.0,82.0,2.25
A-1727366,Tulsa,OK,2019-12-19 19:15:40,2,36.114986,-95.904602,Fair,50.0,0.0,10.0,32.0,0.0
A-1887756,Laurel,MD,2019-09-02 14:54:06,2,39.10334,-76.842773,,86.0,,10.0,55.0,0.0
A-2279257,Cincinnati,OH,2019-02-12 06:59:12,3,39.151053999999995,-84.540047,Light Rain,45.0,0.2,5.0,97.0,0.0
A-7320548,Milwaukee,WI,2019-12-19 07:11:43,2,42.9607,-88.03974000000002,Fair,18.0,0.0,10.0,48.0,0.279
A-2236439,McClellan,CA,2019-03-24 09:29:41,2,38.668549,-121.382896,Clear,50.0,,9.0,76.0,0.0
A-2278650,Pawtucket,RI,2019-02-12 08:35:49,2,41.881538,-71.354218,Scattered Clouds,19.9,,10.0,55.0,0.0
A-7309239,Seattle,WA,2019-12-11 14:21:00,2,47.64468,-122.283567,Cloudy,49.0,0.0,10.0,86.0,0.0
A-7437430,Maupin,OR,2019-03-03 18:58:00,2,45.132452,-121.608298,Partly Cloudy,18.0,,10.0,68.0,0.025
A-7462532,Middlefield,OH,2019-01-14 18:52:00,4,41.426028,-81.0599,Overcast,26.1,,10.0,78.0,2.5340000000000003
A-7470627,Santa Ana,CA,2019-01-27 20:45:45,3,33.75777,-117.85779,Clear,60.1,,10.0,49.0,0.447
A-2145640,Augusta,GA,2019-04-03 08:32:35,2,33.420059,-82.03244000000002,Fog,43.0,0.0,2.0,93.0,0.0
A-1870026,Hollywood,FL,2019-09-20 13:01:04,3,26.00515,-80.341103,Mostly Cloudy / Windy,85.0,0.08,10.0,69.0,1.6399999856948853
A-1976769,Tampa,FL,2019-07-19 13:25:49,3,27.955665999999997,-82.489166,Thunder in the Vicinity,89.0,0.0,10.0,61.0,0.0
A-7310753,Saint Paul,MN,2019-12-12 14:30:00,2,44.95174,-93.16707,Cloudy,18.0,0.0,10.0,74.0,0.0
A-2043195,Yukon,OK,2019-06-10 18:57:49,2,35.44986,-97.72464,Fair,75.0,0.0,10.0,36.0,0.0
A-2195022,Sunol,CA,2019-04-29 09:21:34,3,37.585075,-121.872704,Fair,57.0,0.0,9.0,67.0,0.0
A-1901933,Bellevue,WA,2019-09-09 03:43:43,3,47.619021999999994,-122.188904,Cloudy,62.0,0.0,10.0,86.0,0.0
A-7424873,Nehalem,OR,2019-03-08 10:27:03,2,45.73745200000001,-123.937849,Cloudy,41.0,0.0,10.0,81.0,0.768
A-2086110,Oklahoma City,OK,2019-05-06 10:22:10,2,35.610821,-97.567078,Cloudy,72.0,0.0,10.0,78.0,0.1800000071525573
A-7454371,Ashland,OR,2019-02-26 03:41:58,2,42.15216,-122.64373,Overcast,32.0,,9.0,96.0,0.275
A-1989237,Orlando,FL,2019-07-26 16:27:46,2,28.5536,-81.310806,Thunder in the Vicinity,82.0,0.0,10.0,79.0,0.0
A-1761900,Carlsbad,CA,2019-10-17 04:33:59,2,33.117461999999996,-117.319412,Fog,62.0,0.0,2.0,93.0,0.0
A-7358737,Grayslake,IL,2019-10-28 12:43:46,2,42.33881,-88.00239,Cloudy,48.0,0.0,10.0,63.0,0.111
A-2251440,Burton,MI,2019-03-01 16:03:53,2,43.033649,-83.595718,Overcast,36.0,,10.0,44.0,0.0
A-2363552,Richmond,VA,2019-01-28 07:15:06,2,37.592758,-77.49324,Clear,34.0,,10.0,48.0,0.0
A-2120185,Mobile,AL,2019-05-23 18:45:13,2,30.708190999999996,-88.106003,Fair,84.0,0.0,10.0,76.0,0.0
A-7300199,Orange,CA,2019-12-04 21:10:00,2,33.787833,-117.831133,Mostly Cloudy,61.0,0.0,10.0,83.0,0.0
A-1925185,Blythewood,SC,2019-08-21 07:47:57,2,34.189910999999995,-80.88884,Fair,72.0,,10.0,100.0,0.6399999856948853
A-2204691,Fultondale,AL,2019-03-06 08:01:04,3,33.588955,-86.855385,Clear,30.9,,10.0,57.0,0.0
A-2124679,East Islip,NY,2019-05-27 23:03:23,2,40.745708,-73.178596,Fair,64.0,0.0,10.0,65.0,0.0
A-7471912,Rosemead,CA,2019-01-29 15:13:35,2,34.07184,-118.09317,Haze,71.6,,5.0,46.0,0.263
A-2048042,Denver,CO,2019-06-12 07:56:23,2,39.781975,-104.996895,Mostly Cloudy,57.0,0.0,30.0,63.0,0.0
A-1782108,Springfield,SC,2019-10-28 16:15:05,2,33.48185,-81.269859,Fair,82.0,0.0,10.0,35.0,0.0
A-2317598,Atlanta,GA,2019-01-04 07:07:26,2,33.933571,-84.35759,Rain,52.0,0.09,2.5,100.0,0.0
A-7446160,Zionsville,IN,2019-02-13 02:41:56,4,39.93083,-86.27763900000002,Light Snow,23.0,,2.0,89.0,2.765
A-7386968,Corona,CA,2019-10-01 17:53:00,2,33.891715000000005,-117.646811,Partly Cloudy,71.0,0.0,10.0,53.0,0.0
A-2345456,Griffin,GA,2019-01-18 11:57:02,2,33.240719,-84.421516,Overcast,51.8,,10.0,94.0,0.0
A-7328274,Garden Grove,CA,2019-10-03 22:21:00,2,33.765971,-117.955708,Fair,61.0,0.0,10.0,64.0,0.0
A-1902978,Richmond,VA,2019-09-10 08:22:58,2,37.571751,-77.47466999999997,Fog,69.0,0.0,1.0,93.0,0.0
A-2233164,Louisville,KY,2019-03-22 17:21:32,2,38.115025,-85.700928,Partly Cloudy,57.9,,10.0,33.0,0.0
A-1948516,Los Angeles,CA,2019-07-02 09:48:17,3,34.029884,-118.392471,Fair,71.0,0.0,10.0,68.0,0.0
A-2354746,Ankeny,IA,2019-01-23 07:40:39,3,41.754147,-93.571815,Light Snow,14.0,,9.0,86.0,0.0
A-1804789,Bellevue,NE,2019-11-07 08:55:49,2,41.138569,-95.946747,Fair,21.0,0.0,10.0,54.0,0.0
A-2273336,Lake Villa,IL,2019-02-08 16:25:33,2,42.415161,-88.092117,Mostly Cloudy,10.9,,10.0,56.0,0.0
A-2214824,Minneapolis,MN,2019-03-12 16:21:34,3,44.988289,-93.237038,Overcast,36.0,,3.0,86.0,0.0
A-2151513,Seattle,WA,2019-04-05 14:30:48,3,47.590549,-122.306,Cloudy,54.0,0.03,10.0,75.0,0.0
A-1863831,Lake Worth,FL,2019-10-04 07:17:36,3,26.608582,-80.068832,Partly Cloudy,73.0,0.0,10.0,87.0,0.0
A-7759612,Waldport,OR,2019-07-16 06:52:51,2,44.41151,-123.98488,Rain,61.0,0.01,1.0,100.0,1.662
A-2326050,Indianapolis,IN,2019-01-09 08:03:00,2,39.91246,-86.12326,Overcast,25.0,,10.0,66.0,0.0
A-1863716,Lambsburg,VA,2019-10-04 20:47:00,3,36.576004,-80.743263,Fair,67.0,0.0,10.0,37.0,0.0
A-7717704,City Of Industry,CA,2019-05-03 07:18:32,4,34.03247,-118.02839,Cloudy,59.0,0.0,7.0,78.0,0.241
A-7364346,Mission Viejo,CA,2019-10-31 18:03:00,2,33.58017,-117.6716,Partly Cloudy,73.0,0.0,10.0,19.0,0.0
A-7340917,Bakersfield,CA,2019-10-14 17:49:00,2,35.412244,-119.058817,Partly Cloudy,76.0,0.0,10.0,19.0,0.0
A-7766730,Defuniak Springs,FL,2019-07-31 23:29:29,4,30.692608,-86.127054,Fair,73.0,0.0,10.0,90.0,13.304
A-2254354,Del Valle,TX,2019-03-02 11:39:44,2,30.167135,-97.65918,Overcast,50.0,,1.0,87.0,0.0
A-7767213,Sharpsburg,GA,2019-08-01 13:03:28,4,33.339793,-84.67995,Fair,91.0,0.0,10.0,48.0,0.537
A-2201782,Blue Earth,MN,2019-03-05 16:13:01,3,43.644371,-94.110451,Clear,14.0,,10.0,67.0,0.0
A-2248890,Lincoln,AL,2019-03-31 21:29:43,3,33.591637,-86.161827,Clear,46.0,,10.0,51.0,0.0
A-7379493,Ontario,CA,2019-11-12 06:33:30,2,34.067609999999995,-117.56668,Fair,53.0,0.0,5.0,83.0,0.053
A-2293273,Bronx,NY,2019-02-19 06:14:20,2,40.844879,-73.926109,Scattered Clouds,25.0,,10.0,55.0,0.4699999988079071
A-7377481,Arcadia,CA,2019-11-10 21:17:00,2,34.148441,-118.038801,Cloudy,62.0,0.0,7.0,84.0,0.0
A-2309784,Woodstock,GA,2019-02-27 11:53:45,2,34.085026,-84.46165500000002,Overcast,60.1,,7.0,90.0,0.0
A-7400914,San Diego,CA,2019-09-27 15:23:00,2,32.709985,-117.085082,Mostly Cloudy,73.0,0.0,10.0,64.0,0.0
A-2236793,Woodside,NY,2019-03-25 10:25:05,3,40.732689,-73.919296,Overcast,48.0,,10.0,46.0,0.0
A-2217175,Austin,TX,2019-03-13 10:05:36,2,30.27755,-97.696129,Light Rain,57.0,0.21,10.0,89.0,0.0
A-2148468,Mobile,AL,2019-04-04 10:12:06,2,30.6408,-88.12024699999998,Light Rain,65.0,0.0,10.0,87.0,0.0
A-2078250,Denver,CO,2019-06-28 04:54:21,2,39.77953,-104.991119,Fair,64.0,0.0,10.0,34.0,0.3600000143051147
A-1689924,Saratoga,CA,2019-12-02 17:52:36,2,37.27504,-122.004387,Mostly Cloudy,59.0,0.0,10.0,78.0,0.0
A-2208770,Deland,FL,2019-03-08 12:40:48,2,29.021681,-81.25254100000002,Scattered Clouds,73.4,,10.0,44.0,0.0
A-2343968,Portland,OR,2019-01-17 08:14:11,2,45.521511,-122.660728,Overcast,41.0,0.01,10.0,79.0,0.0
A-7350598,Fulda,MN,2019-10-22 12:23:00,2,43.87076,-95.5925,Fair / Windy,44.0,0.0,10.0,55.0,0.073
A-7397707,Sacramento,CA,2019-09-25 07:48:00,2,38.564736,-121.497739,Fair,67.0,0.0,10.0,70.0,0.0
A-1843021,Decatur,GA,2019-11-25 21:12:01,4,33.736686999999996,-84.230705,Fair,43.0,0.0,10.0,82.0,2.5899999141693115
A-2146627,San Francisco,CA,2019-04-03 05:23:30,2,37.633533,-122.398209,Mostly Cloudy,52.0,0.0,10.0,89.0,0.0
A-7717188,Riverside,CA,2019-04-02 15:45:07,2,33.90784,-117.45404,Partly Cloudy,71.0,0.0,10.0,42.0,0.483
A-7743337,Aitkin,MN,2019-06-26 08:04:08,2,46.43203,-93.74367,Fair,64.0,0.0,10.0,73.0,19.826
A-2282940,Oak Grove,MO,2019-02-13 04:40:52,3,39.020229,-94.175552,Clear,27.0,,10.0,81.0,0.0
A-1797027,Mobile,AL,2019-11-04 07:03:04,2,30.618447999999997,-88.135513,Fair,50.0,0.0,10.0,86.0,0.0
A-1889360,Ft Mitchell,KY,2019-09-03 07:28:29,2,39.02808,-84.54451,Fair,66.0,0.0,9.0,84.0,0.0
A-2361102,Heber City,UT,2019-01-25 07:21:59,2,39.92850900000001,-111.078285,,,,,,0.8100000023841858
A-7764121,Seatac,WA,2019-07-25 17:36:25,4,47.44291,-122.29603,Fair,83.0,0.0,10.0,24.0,0.162
A-2086425,Jemison,AL,2019-05-06 10:34:50,2,33.006302000000005,-86.783569,Fair,73.0,0.0,10.0,53.0,0.0
A-2357633,Milwaukee,WI,2019-01-24 07:13:07,3,42.96230300000001,-87.935036,Mostly Cloudy,10.9,,8.0,81.0,0.0
A-2019527,Columbus,OH,2019-08-13 08:39:34,2,40.054279,-83.033783,Mostly Cloudy,73.0,0.0,10.0,93.0,2.1600000858306885
A-1846169,Baton Rouge,LA,2019-11-26 05:45:53,2,30.509390000000003,-91.120598,Mostly Cloudy,60.0,0.0,10.0,93.0,0.0
A-7754955,Los Angeles,CA,2019-07-05 10:01:52,2,34.03652,-118.26954,Haze,69.0,0.0,3.0,70.0,0.09
A-1801142,Charlotte,NC,2019-11-06 07:52:33,2,35.244919,-80.801292,Fair,53.0,0.0,10.0,64.0,0.0
A-2156781,Lexington,SC,2019-04-09 06:36:49,3,33.978264,-81.194946,Light Rain,66.0,0.03,6.0,90.0,0.0
A-7423557,Salt Lake City,UT,2019-03-06 17:57:01,2,40.83223,-111.94458,Mostly Cloudy,46.9,0.05,10.0,80.0,0.139
A-1798592,Glen Allen,VA,2019-11-05 07:32:27,2,37.648998,-77.56055500000002,Fair,45.0,0.0,9.0,90.0,0.0
A-2267601,Wellford,SC,2019-02-06 07:49:01,2,34.924099,-82.077873,Fog,55.0,,0.2,100.0,0.0
A-7750733,Huntington Park,CA,2019-08-29 11:47:47,2,33.96732,-118.23023,Fair,85.0,0.0,10.0,53.0,0.073
A-2322819,El Paso,TX,2019-01-07 10:25:22,2,31.772064,-106.339722,Partly Cloudy,55.9,,10.0,33.0,0.0
A-7465265,Andover,MA,2019-01-18 19:17:23,2,42.66162,-71.19801,Overcast,37.0,,10.0,65.0,2.137
A-2010460,Tempe,AZ,2019-08-07 20:21:00,2,33.429245,-111.90477,Mostly Cloudy,96.0,0.0,10.0,32.0,0.0
A-2301988,San Antonio,TX,2019-02-22 10:50:59,2,29.54265,-98.397453,Overcast,53.6,,6.0,100.0,0.0
A-1865332,El Sobrante,CA,2019-10-04 13:05:58,2,37.978190999999995,-122.295341,Fair,73.0,0.0,10.0,27.0,0.0
A-2013128,Omaha,NE,2019-08-08 04:43:41,2,41.29225200000001,-95.90197,Mostly Cloudy,74.0,0.0,10.0,91.0,0.0
A-2310591,Tulsa,OK,2019-02-27 09:58:06,2,36.08989,-95.922249,Light Freezing Rain,30.2,,2.5,93.0,0.0
A-1865279,Fair Oaks,CA,2019-10-04 05:52:24,2,38.646431,-121.252991,Fair,45.0,,10.0,87.0,0.0
A-2197111,Prattville,AL,2019-04-01 07:38:30,3,32.551628,-86.458801,Fair,41.0,0.0,10.0,64.0,0.8999999761581421
A-1773702,Denver,CO,2019-10-23 08:49:00,2,39.715271,-104.95932,Mostly Cloudy,39.0,0.0,10.0,73.0,0.0
A-1754886,Columbia,SC,2019-10-15 09:58:14,2,34.056141,-80.934601,Partly Cloudy,65.0,0.0,10.0,70.0,0.0
A-1882383,Nevada City,CA,2019-09-26 16:26:01,2,39.256882,-121.0187,Fair,81.0,0.0,10.0,37.0,0.8199999928474426
A-1959914,Atlanta,GA,2019-07-10 11:17:42,2,33.746964,-84.387276,Partly Cloudy,83.0,0.0,10.0,67.0,0.0
A-2211575,Dallas,TX,2019-03-10 15:32:04,3,32.796271999999995,-96.815399,Overcast,60.1,,10.0,49.0,0.0
A-7412401,Eden Prairie,MN,2019-09-09 13:08:40,2,44.86477,-93.42892,Cloudy,59.0,0.04,10.0,90.0,0.235
A-2348136,Renton,WA,2019-01-20 11:23:02,3,47.467556,-122.217873,Clear,44.1,,10.0,79.0,0.0
A-1862277,Dallas,TX,2019-10-03 05:22:22,2,32.796619,-96.750679,Fair,80.0,0.0,10.0,67.0,0.0
A-1954539,Atlanta,GA,2019-07-07 13:30:02,3,33.852581,-84.24646,Heavy T-Storm,78.0,0.06,1.0,87.0,0.0
A-2044883,Riverview,FL,2019-06-11 08:04:45,2,27.872141,-82.326607,Partly Cloudy,,0.0,10.0,,0.0
A-1947617,Madison,WI,2019-07-02 18:01:52,2,43.040690999999995,-89.377983,Mostly Cloudy,88.0,0.0,10.0,51.0,0.0
A-2307292,Liberty,SC,2019-02-26 17:16:12,2,34.706459,-82.620583,Clear,64.8,,10.0,40.0,0.0
A-1813515,Uniontown,OH,2019-11-12 12:46:43,3,40.96405,-81.465096,Light Snow,25.0,0.01,2.0,72.0,0.0
A-7749318,Grand Terrace,CA,2019-08-28 08:32:00,2,34.038093,-117.320008,Fair,77.0,0.0,5.0,57.0,0.0
A-2286151,Perdido,AL,2019-02-14 17:40:35,3,31.017927,-87.657799,Partly Cloudy,63.0,,10.0,75.0,0.0
A-2273877,Denver,CO,2019-02-08 01:51:04,2,39.754009,-104.996407,Clear,10.4,,10.0,67.0,0.0
A-1709648,Tuscaloosa,AL,2019-12-11 06:45:51,2,33.174339,-87.555229,Fair,32.0,0.0,10.0,88.0,0.6100000143051147
A-7443344,Los Angeles,CA,2019-02-08 14:34:26,3,34.03188,-118.41858,Clear,57.9,,10.0,47.0,1.266
A-1847477,Cincinnati,OH,2019-11-27 10:53:48,2,39.12804000000001,-84.500099,Fair / Windy,54.0,0.0,10.0,49.0,0.1700000017881393
A-1774720,Edgewood,KY,2019-10-24 06:53:01,2,39.014332,-84.57826999999997,Fair,46.0,0.0,10.0,63.0,0.0
A-7429470,Milton Freewater,OR,2019-03-18 17:59:32,2,45.923641,-118.38191100000002,Clear,50.0,,10.0,61.0,0.013
A-7319322,Noti,OR,2019-12-18 02:41:46,2,44.07395,-123.51385,Fog,34.0,0.0,0.25,92.0,0.0
A-7310628,Circle Pines,MN,2019-12-12 11:33:00,2,45.16806,-93.14292,Light Snow,16.0,0.0,3.0,86.0,0.0
A-2042116,Canton,OH,2019-06-10 13:06:10,3,40.784771,-81.38436899999998,Cloudy,71.0,0.21,8.0,84.0,0.0
A-2279025,Norwalk,CT,2019-02-12 17:18:41,3,41.103016,-73.432693,Light Freezing Rain,25.0,0.07,0.5,88.0,1.1599999666213991
A-1894008,Cincinnati,OH,2019-09-05 07:52:54,2,39.234928,-84.47193100000001,Fair,57.0,0.0,10.0,100.0,0.0
A-2259882,Rowland Heights,CA,2019-02-01 11:24:05,2,33.987251,-117.88488,Mostly Cloudy,62.1,,10.0,65.0,0.0
A-2229743,Avondale,AZ,2019-03-20 07:41:19,2,33.421028,-112.289574,Mostly Cloudy,57.2,,10.0,67.0,0.0
A-2127890,American Canyon,CA,2019-05-28 14:04:26,2,38.174071999999995,-122.193817,Fair,69.0,0.0,10.0,65.0,0.0
A-7468168,Brooklyn,MS,2019-01-23 15:19:11,2,31.023598,-89.202278,Light Rain,55.0,0.1,10.0,96.0,0.404
A-2346834,Kingston,NY,2019-01-19 15:57:45,3,41.948463,-74.026138,Overcast,32.0,,10.0,59.0,0.0
A-1807937,Austin,TX,2019-11-08 13:48:51,2,30.335390000000004,-97.703072,Cloudy,49.0,0.0,10.0,80.0,0.0
A-2110174,Phoenix,AZ,2019-05-18 11:57:01,3,33.524471000000005,-112.112793,Fair,77.0,0.0,10.0,14.0,0.0
A-2321703,Anderson,SC,2019-01-07 10:00:47,2,34.533970000000004,-82.614243,Clear,53.1,,10.0,69.0,0.0
A-2158441,West Henrietta,NY,2019-04-10 08:09:48,2,43.048779,-77.693527,Light Snow,36.0,0.0,6.0,82.0,0.0
A-2283794,Reno,NV,2019-02-13 08:20:36,2,39.359772,-119.853371,Heavy Rain,37.0,0.06,3.0,86.0,0.0
A-2293807,Richmond,VA,2019-02-19 17:55:53,2,37.533127,-77.432808,Overcast,41.0,,10.0,41.0,0.0
A-7394875,Snohomish,WA,2019-09-23 10:04:07,2,47.816265,-122.139339,Cloudy,57.0,0.0,10.0,83.0,0.0
A-1931043,Chandler,AZ,2019-08-23 14:45:47,2,33.306236,-111.841476,Fair,99.0,,10.0,25.0,0.0
A-2031908,Bronx,NY,2019-06-04 14:28:51,3,40.845303,-73.928001,Mostly Cloudy,71.0,0.0,10.0,27.0,0.0
A-2270140,Summerfield,FL,2019-02-07 06:25:04,2,29.02569,-82.12011,Fair,58.0,0.0,3.0,97.0,0.0
A-2253064,Oklahoma City,OK,2019-03-01 19:01:52,2,35.408169,-97.53022,Overcast,36.0,,10.0,79.0,0.0
A-1790269,Oklahoma City,OK,2019-10-31 08:19:24,2,35.623669,-97.595039,Fair,24.0,0.0,10.0,77.0,0.0
A-1971463,Southfield,MI,2019-07-17 07:42:58,2,42.454433,-83.215752,Partly Cloudy,73.0,0.0,7.0,88.0,0.0
A-7770501,Cranford,NJ,2019-08-08 12:00:46,3,40.66214,-74.28716999999997,Fair,80.0,0.0,10.0,64.0,0.243
A-1802581,Leeds,AL,2019-11-06 14:02:36,2,33.542301,-86.53913100000004,Fair,75.0,0.0,10.0,26.0,0.0
A-7432003,Los Angeles,CA,2019-03-23 20:55:41,4,34.138090000000005,-118.22893,Partly Cloudy,57.9,,10.0,81.0,0.8320000000000001
A-2180937,Moore,SC,2019-04-22 17:11:31,2,34.902229,-82.006638,Fair,77.0,0.0,10.0,29.0,0.0
A-1961332,Clinton,NY,2019-07-11 06:02:13,2,43.044369,-75.445511,Cloudy,72.0,0.0,10.0,78.0,0.0
A-2127873,Sacramento,CA,2019-05-28 10:09:36,2,38.487919,-121.408829,Fair,64.0,0.0,10.0,70.0,0.0
A-2033561,Tillamook,OR,2019-06-04 11:01:49,2,45.407104,-123.821777,Fair,61.0,0.0,10.0,52.0,0.0
A-2359625,Charlotte,NC,2019-01-25 14:55:42,2,35.25404,-80.80519100000002,Mostly Cloudy,48.9,,10.0,31.0,0.0
A-1685927,Baton Rouge,LA,2019-12-31 06:47:04,2,30.38723,-91.093773,Fair,38.0,0.0,10.0,89.0,0.0
A-2223229,East Peoria,IL,2019-03-17 07:58:55,2,40.634884,-89.609543,Overcast,34.0,,10.0,89.0,0.0
A-2085624,Simpsonville,SC,2019-05-06 06:24:59,2,34.74366,-82.185692,Fair,61.0,0.0,10.0,82.0,0.0
A-2340935,Jackson,MS,2019-01-16 08:13:51,2,32.325863,-90.161217,Overcast,37.0,,5.0,96.0,0.0
A-1896298,Chardon,OH,2019-09-06 07:32:48,2,41.547740999999995,-81.27735899999998,Fair,54.0,0.0,20.0,94.0,0.0
A-7425979,Waconia,MN,2019-03-11 13:52:42,2,44.85889,-93.74692,Clear,23.4,,7.0,76.0,0.0
A-2166776,Knoxville,TN,2019-04-14 11:53:32,3,35.96810900000001,-83.930489,Cloudy,73.0,0.0,10.0,66.0,0.0
A-1878910,Ormond Beach,FL,2019-09-25 11:21:38,3,29.404417,-81.155029,Fair,86.0,,10.0,55.0,0.0
A-7455344,Jacksonville,OR,2019-02-27 08:20:44,2,42.245908,-123.142563,Light Rain,33.1,0.0,4.0,100.0,0.693
A-2115224,Austin,TX,2019-05-21 11:17:05,2,30.397631,-97.928459,Cloudy,64.0,0.0,10.0,93.0,0.0
A-7359373,Fresno,CA,2019-10-28 05:23:00,2,36.74684,-119.77619,Fair,47.0,0.0,7.0,68.0,0.0
A-2315676,Austin,TX,2019-01-03 08:56:21,2,30.436583,-97.774673,Overcast,37.9,,10.0,93.0,0.0
A-2271582,Tucson,AZ,2019-02-07 11:48:19,2,32.23,-110.926743,Clear,48.2,,10.0,30.0,0.0
A-2307443,Minneapolis,MN,2019-02-26 12:32:33,2,44.895496,-93.247536,Light Snow,3.9,0.01,1.0,76.0,0.0
A-2364586,Port Allen,LA,2019-01-28 06:31:32,2,30.45087100000001,-91.24511,Clear,41.0,,7.0,82.0,0.0
A-7740292,Jacksonville,FL,2019-06-19 14:55:43,2,30.30906,-81.84854,Light Rain,73.0,0.0,2.0,94.0,0.291
A-2319246,Myersville,MD,2019-01-05 10:35:56,3,39.495739,-77.567665,,,,,,0.0
A-7738168,Arlington,OR,2019-06-13 14:18:35,2,45.69612,-120.36902,Fair,98.0,0.0,10.0,18.0,1.043
A-1930065,Seneca,SC,2019-08-23 16:05:41,2,34.681999,-82.988518,Light Rain,78.0,0.01,10.0,81.0,0.0
A-7416419,Lincoln,CA,2019-09-12 07:56:00,2,38.855514,-121.299883,Fair,59.0,0.0,10.0,72.0,0.0
A-2195407,Flint,MI,2019-04-01 09:35:12,2,42.95071,-83.696793,Fair,30.0,0.0,10.0,69.0,0.0
A-1824107,Manor,TX,2019-11-15 19:47:20,2,30.3874,-97.553429,Fair,50.0,0.0,10.0,54.0,0.0
A-1980117,Charlotte,NC,2019-07-22 12:29:53,2,35.054328999999996,-80.769653,Fair,92.0,0.0,10.0,44.0,0.0
A-1772032,Rockville,MD,2019-10-23 08:48:12,2,39.061813,-77.12404599999998,Fair,49.0,0.0,10.0,100.0,0.0
A-7452736,Cottage Grove,OR,2019-02-24 15:32:23,2,43.73395900000001,-123.196512,Overcast,37.9,0.01,10.0,89.0,2.842
A-7768416,Tualatin,OR,2019-08-03 15:02:32,2,45.361324,-122.760822,Fair,86.0,0.0,10.0,27.0,0.058
A-1757221,Boiling Springs,SC,2019-10-16 16:05:35,2,35.087021,-81.92916899999999,Mostly Cloudy,70.0,0.0,10.0,60.0,0.0
A-2336250,Los Angeles,CA,2019-01-14 07:36:06,3,34.031878999999996,-118.435043,Rain,54.0,0.22,4.0,80.0,0.0299999993294477
A-2010454,Glendale,AZ,2019-08-07 19:05:36,2,33.551971,-112.237808,Cloudy,97.0,0.0,10.0,28.0,0.0
A-7465385,Oakland Park,FL,2019-01-18 13:06:00,4,26.166621,-80.145238,Clear,75.9,,10.0,54.0,0.075
A-7716675,Queens,NY,2019-04-02 06:26:52,4,40.789838,-73.792139,Mostly Cloudy,38.0,0.0,10.0,57.0,1.857
A-7381025,Rocklin,CA,2019-11-13 18:24:00,2,38.772011,-121.245457,Fair,57.0,0.0,4.0,51.0,0.0
A-1721807,Minneapolis,MN,2019-12-17 17:06:35,2,45.069878,-93.296509,Fair,20.0,0.0,10.0,65.0,0.0
A-2028854,Marietta,SC,2019-06-02 09:44:38,2,35.013962,-82.602501,Fair,81.0,0.0,10.0,44.0,0.0
A-2114921,Neeses,SC,2019-05-21 16:46:44,3,33.53347,-81.123779,Partly Cloudy,91.0,0.0,10.0,30.0,0.0
A-7367259,Seaside,OR,2019-11-03 12:00:44,2,45.84951,-123.53725,Cloudy,49.0,0.0,10.0,86.0,1.419
A-2329744,Leeds,AL,2019-01-10 18:57:59,2,33.521172,-86.552559,Clear,33.1,,10.0,64.0,0.0
A-2337684,Orangeburg,SC,2019-01-15 07:29:13,2,33.462139,-80.897018,Overcast,41.0,,10.0,93.0,0.0
A-1805667,Denver,CO,2019-11-07 07:50:50,2,39.678631,-105.025032,Fair,32.0,0.0,10.0,85.0,0.0
A-7726527,San Carlos,AZ,2019-05-22 20:47:56,3,33.28629,-110.37078,Fair,69.0,0.0,10.0,35.0,12.687
A-2031539,San Diego,CA,2019-06-03 09:24:43,2,33.022789,-117.078773,Cloudy,62.0,0.0,10.0,72.0,0.0
A-1936496,Johnstown,CO,2019-08-27 05:41:47,2,40.364487,-104.986343,Mostly Cloudy,54.0,0.0,10.0,77.0,0.0
A-2082163,Tempe,AZ,2019-05-31 16:24:31,2,33.392959999999995,-111.926338,Fair,98.0,0.0,10.0,8.0,0.0
A-2114916,Summerville,SC,2019-05-21 13:34:08,2,33.046879,-80.10826899999998,,,,,,0.0
A-2349688,Dallas,TX,2019-01-21 07:07:09,2,32.86343,-96.896896,Scattered Clouds,39.0,,10.0,65.0,0.0
A-7285774,Portland,OR,2019-12-23 17:12:35,2,45.54418,-122.5224,Cloudy,44.0,0.0,10.0,79.0,0.0
A-2101586,Antioch,TN,2019-05-14 05:32:31,2,35.98990999999999,-86.635757,Fair,47.0,0.0,10.0,86.0,0.0
A-1687677,Hillside,NJ,2019-12-02 07:20:59,2,40.69659,-74.218384,Light Drizzle,36.0,0.0,6.0,93.0,2.4600000381469727
A-1934526,Flint,MI,2019-08-27 15:08:45,2,43.018742,-83.63488000000002,Partly Cloudy,79.0,0.0,10.0,58.0,0.0
A-1709587,Dallas,TX,2019-12-11 11:07:44,3,32.7939,-96.814407,Fair,45.0,0.0,10.0,58.0,0.0
A-1839339,Dallas,TX,2019-11-22 10:40:39,2,32.743721,-96.816612,Cloudy,47.0,0.0,10.0,83.0,0.0
A-7327115,Lake Elsinore,CA,2019-10-03 14:51:00,2,33.654461,-117.379082,Fair,81.0,0.0,10.0,24.0,0.0
A-7767522,Idleyld Park,OR,2019-08-01 18:54:28,2,43.324844,-123.021022,Fair,82.0,0.0,10.0,39.0,0.165
A-7355458,Oakhurst,CA,2019-10-25 12:54:00,2,37.331117,-119.655526,Fair,82.0,0.0,7.0,28.0,0.0
A-1788940,Merchantville,NJ,2019-10-31 19:15:48,2,39.961472,-75.052139,Mostly Cloudy,74.0,0.0,10.0,79.0,0.0
A-2182892,Raleigh,NC,2019-04-23 11:13:30,2,35.85052899999999,-78.614479,Mostly Cloudy,71.0,0.0,10.0,51.0,0.0
A-1771303,Tracy,CA,2019-10-22 07:09:56,2,37.754162,-121.574913,Fair,56.0,0.0,10.0,64.0,0.0
A-1906446,Memphis,TN,2019-09-11 18:46:20,3,35.176449,-90.01815,Fair,88.0,0.0,10.0,51.0,0.0
A-7732953,Burns,OR,2019-06-02 12:04:50,2,43.61411,-119.02004,Fair,75.0,0.0,10.0,34.0,0.1639999999999999
A-1730986,Sunset,SC,2019-12-21 13:59:22,2,35.002941,-82.804024,Mostly Cloudy,51.0,0.0,10.0,40.0,0.0
A-2219454,Baton Rouge,LA,2019-03-14 10:32:27,2,30.392076,-91.034264,Mostly Cloudy,81.0,,10.0,69.0,0.0
A-7732122,Colorado Springs,CO,2019-05-02 08:09:59,4,38.83912,-104.714789,Cloudy,34.0,0.0,6.0,89.0,0.331
A-2071565,Dallas,TX,2019-06-25 08:46:10,3,32.794521,-96.722527,Mostly Cloudy,78.0,0.0,10.0,74.0,0.0
A-7377149,San Bernardino,CA,2019-11-09 22:54:00,2,34.165265000000005,-117.285,Fair,60.0,0.0,10.0,20.0,0.0
A-1848630,Manor,TX,2019-11-27 13:56:08,2,30.35005,-97.509499,Mostly Cloudy,57.0,0.0,10.0,29.0,0.0
A-1777944,Fleming Island,FL,2019-10-25 14:42:56,2,30.137526,-81.70195,Partly Cloudy,85.0,0.0,10.0,59.0,0.0
A-2368343,Framingham,MA,2019-01-30 04:35:51,3,42.296165,-71.479462,Light Snow,35.1,0.01,4.0,89.0,0.0
A-7351124,San Leandro,CA,2019-10-22 17:28:30,2,37.71129000000001,-122.168,Partly Cloudy,77.0,0.0,10.0,34.0,0.0069999999999999
A-2358672,Merced,CA,2019-01-24 15:20:20,2,37.361134,-120.432281,Clear,60.1,,10.0,57.0,0.0
A-7389357,Pasadena,CA,2019-09-17 10:34:00,2,34.152617,-118.113069,,,,,,0.0
A-7761661,Pittsburgh,PA,2019-07-21 04:12:14,2,40.42899,-79.9396,Fair,77.0,0.0,10.0,84.0,0.884
A-2042633,Lula,GA,2019-06-10 07:02:10,2,34.395119,-83.69111600000002,Light Rain,74.0,0.0,10.0,93.0,0.0
A-2369553,Elgin,IL,2019-01-30 11:04:59,2,42.025749,-88.31197399999998,Clear,-20.9,0.0,8.0,63.0,0.0
A-2310060,Omaha,NE,2019-02-27 08:10:47,2,41.147243,-96.158607,Light Snow,10.8,,10.0,71.0,0.0
A-1803323,Riverside,CA,2019-11-06 17:30:37,2,33.915092,-117.441551,Fair,68.0,0.0,10.0,55.0,0.0
A-1833205,Niles,IL,2019-11-20 07:52:02,2,42.012901,-87.78949,Cloudy,40.0,0.0,5.0,93.0,0.0
A-2119378,Chesnee,SC,2019-05-23 16:48:36,2,35.083496000000004,-81.86041999999998,Fair,79.0,0.0,10.0,74.0,0.0
A-2288054,Grand Ridge,FL,2019-02-15 10:44:36,3,30.635741999999997,-84.945541,Overcast,64.9,,10.0,68.0,0.0
A-7426411,Bronx,NY,2019-03-12 20:36:58,2,40.81573,-73.93097,Partly Cloudy,37.9,,10.0,45.0,0.35
A-2060582,Saint Paul,MN,2019-06-19 09:25:46,3,45.037285,-93.017372,Fair,70.0,0.0,10.0,60.0,0.0
A-1749453,Fircrest,WA,2019-10-11 08:04:25,1,47.23637,-122.507751,Partly Cloudy,42.0,0.0,10.0,89.0,0.0
A-2162978,Monterey,CA,2019-04-11 16:35:04,2,36.586269,-121.830528,Partly Cloudy / Windy,55.0,0.0,10.0,67.0,0.0
A-1987498,San Antonio,TX,2019-07-25 05:26:46,3,29.475388,-98.405045,Fair,67.0,0.0,10.0,61.0,0.0
A-1937638,Hialeah,FL,2019-08-28 08:11:42,2,25.936029,-80.293762,Fair,82.0,0.0,10.0,85.0,0.0
A-7715975,Centerville,UT,2019-04-29 15:17:00,2,40.92705,-111.89119,Mostly Cloudy,61.0,0.0,10.0,32.0,1.74
A-2065662,Baton Rouge,LA,2019-06-21 11:46:14,3,30.428328000000004,-91.170776,Mostly Cloudy,90.0,0.0,10.0,65.0,0.0
A-2071405,Austin,TX,2019-06-25 09:52:05,2,30.312281,-97.753441,Fair,79.0,0.0,10.0,69.0,0.0
A-2217201,Oklahoma City,OK,2019-03-13 11:19:42,3,35.435249,-97.510521,Light Rain,60.6,0.35,6.0,100.0,0.0
A-7437187,Howard Beach,NY,2019-03-03 08:55:17,3,40.66678,-73.83608000000002,Mostly Cloudy,37.9,,10.0,55.0,0.479
A-7364302,Castaic,CA,2019-10-31 17:20:00,2,34.495919,-118.623691,Fair,73.0,0.0,10.0,4.0,0.0
A-1840711,Austin,TX,2019-11-23 13:14:58,2,30.266581,-97.733841,Fair,63.0,0.0,10.0,41.0,0.0
A-1992750,Knightdale,NC,2019-07-29 19:26:29,3,35.768848,-78.50747700000002,Fair,84.0,0.0,10.0,62.0,0.0
A-7350012,Gilroy,CA,2019-10-21 13:54:00,2,37.027812,-121.552411,Fair,81.0,0.0,10.0,30.0,0.0
A-2216495,Richmond,VA,2019-03-13 22:52:29,2,37.556061,-77.473747,Scattered Clouds,48.9,,10.0,59.0,0.0
A-2086719,Phoenix,AZ,2019-05-06 15:05:37,3,33.462315000000004,-112.23819,Mostly Cloudy,81.0,0.0,10.0,21.0,0.0
A-1974637,Pamplico,SC,2019-07-18 10:48:51,2,33.931759,-79.487038,Fair,91.0,0.0,10.0,57.0,0.0
A-7729578,Eugene,OR,2019-05-29 08:51:05,2,44.09438,-123.10487,Cloudy,53.0,0.0,3.0,89.0,0.289
A-7374855,Walnut Creek,CA,2019-11-08 21:43:00,2,37.930194,-122.058221,Fair,51.0,0.0,7.0,83.0,0.0
A-2139136,Houston,TX,2019-05-02 06:37:46,2,29.686978999999997,-95.297501,Mostly Cloudy,76.0,0.0,10.0,82.0,0.0
A-2237507,Tallahassee,FL,2019-03-25 08:04:49,2,30.43545,-84.352867,Overcast,57.0,,10.0,100.0,0.0
A-2147975,Augusta,GA,2019-04-04 07:03:16,2,33.47443,-81.985123,Fair,51.0,0.0,10.0,74.0,0.0
A-7397983,Riverside,CA,2019-09-25 06:30:30,2,34.017409,-117.341293,Fair,64.0,0.0,10.0,63.0,0.0
A-2212736,Augusta,GA,2019-03-11 20:16:01,2,33.419369,-82.075386,Mostly Cloudy,57.9,0.01,10.0,90.0,0.0
A-7744218,Charleston,WV,2019-06-28 14:47:39,2,38.36434000000001,-81.61615,Partly Cloudy,90.0,0.0,10.0,50.0,0.389
A-2230062,Fresno,CA,2019-03-20 12:54:17,2,36.767941,-119.83621200000002,Light Rain,60.1,0.0,8.0,62.0,0.0
A-2168448,Minneapolis,MN,2019-04-15 19:18:31,2,45.122307,-93.308121,Cloudy,54.0,0.0,10.0,45.0,2.1800000667572017
A-1833019,Aiken,SC,2019-11-20 12:32:25,2,33.587158,-81.680702,Fair,59.0,,10.0,45.0,0.0
A-1947713,Austin,TX,2019-07-02 07:34:25,2,30.232,-97.800583,Fair,76.0,0.0,10.0,91.0,0.0
A-2243508,Orange,CT,2019-03-28 18:26:36,2,41.307945,-73.033005,Mostly Cloudy,45.0,,10.0,71.0,0.0
A-1806061,Santa Rosa,CA,2019-11-07 17:34:25,2,38.497005,-122.748383,Haze,50.0,0.0,6.0,93.0,0.0
A-2282014,Amity,PA,2019-02-13 04:09:00,3,40.018776,-80.17556,Light Snow,30.0,0.0,9.0,82.0,10.380000114440918
A-2009091,Charlotte,NC,2019-08-07 21:38:41,2,35.241058,-80.850662,Thunder in the Vicinity,81.0,0.0,10.0,62.0,0.0
A-2342803,Columbia,SC,2019-01-17 14:50:48,2,34.035492,-81.023331,Partly Cloudy,57.9,,10.0,46.0,0.0
A-2156365,Charlotte,NC,2019-04-09 08:12:46,2,35.186661,-80.806381,Cloudy,65.0,0.0,4.0,93.0,0.0
A-1970279,Minneapolis,MN,2019-07-16 11:40:06,2,44.949905,-93.347824,Mostly Cloudy,82.0,0.0,10.0,67.0,0.0
A-1865542,La Puente,CA,2019-10-04 15:01:30,2,34.032063,-117.970657,Fair,78.0,0.0,10.0,37.0,0.0
A-1939711,Crownsville,MD,2019-08-29 08:27:29,2,39.044857,-76.61682900000002,Fair,76.0,0.0,10.0,56.0,3.920000076293945
A-1728135,Mira Loma,CA,2019-12-19 11:09:59,3,34.03183,-117.550049,Fair,62.0,0.0,10.0,22.0,0.0
A-7722765,Teasdale,UT,2019-05-14 14:30:00,2,38.176832,-111.34691,Fair,86.0,,10.0,12.0,0.421
A-2064944,Miami,FL,2019-06-21 05:26:33,2,25.761959,-80.336159,Fair,81.0,0.0,10.0,82.0,0.0
A-2145092,Huntersville,NC,2019-04-03 12:34:10,2,35.39344000000001,-80.834808,Fair,64.0,0.0,10.0,28.0,0.0
A-7467196,Lebanon,CT,2019-01-22 06:57:52,4,41.638896,-72.174788,Clear,5.0,,10.0,61.0,0.314
A-1766252,Phillipsburg,NJ,2019-10-21 06:37:24,2,40.594589,-75.189522,Fair,48.0,0.0,10.0,87.0,0.0
A-1822175,Rochester,NY,2019-11-15 15:53:31,2,43.163189,-77.621597,Mostly Cloudy,35.0,0.0,10.0,67.0,0.0
A-1737640,Fort Lauderdale,FL,2019-10-07 04:57:32,2,26.137367,-80.2183,Partly Cloudy,79.0,0.0,10.0,84.0,0.0
A-2016988,Ardmore,PA,2019-08-12 12:47:58,2,40.010479,-75.29615799999998,Fair,83.0,0.0,10.0,46.0,0.0
A-7467205,Pennsauken,NJ,2019-01-22 08:06:45,4,39.93577,-75.08634,Clear,15.1,,10.0,54.0,0.24
A-7748849,Turlock,CA,2019-08-28 08:13:00,2,37.547932,-120.905349,Fair,75.0,0.0,10.0,41.0,0.0
A-7431822,Tampa,FL,2019-03-23 06:13:41,3,27.95547,-82.46251,Overcast,,,10.0,,0.046
A-2260016,Albany,NY,2019-02-02 07:16:40,3,42.64432100000001,-73.75209,Scattered Clouds,-0.9,,10.0,72.0,0.699999988079071
A-2125916,Somerville,MA,2019-05-28 07:08:29,3,42.392342,-71.084351,Cloudy,58.0,0.0,10.0,53.0,0.0
A-7329007,Bowie,MD,2019-10-05 23:43:36,3,38.94375,-76.79415999999998,Cloudy,58.0,0.0,10.0,61.0,0.204
A-1745677,Columbia,SC,2019-10-10 17:12:04,3,34.036964000000005,-81.110214,Fair,80.0,0.0,10.0,40.0,0.0
A-2056813,Santa Rosa,CA,2019-06-17 17:20:55,2,38.479713,-122.733742,Fair,73.0,0.0,7.0,57.0,0.0
A-2195948,Charlotte,NC,2019-04-01 17:25:39,2,35.193062,-80.795059,Fair,55.0,0.0,10.0,22.0,0.0
A-1715370,Houston,TX,2019-12-13 04:49:58,2,29.605881,-95.476143,Cloudy,54.0,0.0,10.0,95.0,0.0
A-1729486,Elloree,SC,2019-12-20 08:19:46,2,33.560989,-80.608871,Fair,28.0,0.0,10.0,81.0,0.0
